LOCN_NBR,STORE_NAME,BIS_NM,ADR,ADDRESS,CTY,CITY,STE,ZIP,PHN,FAX,COM_PHN,HRS,LAT,LNG,DIRE,CD,LOGO,CST_SEV,CNTY,mon_opn,mon_cse,tue_opn,tue_cse,wed_opn,wed_cse,thu_opn,thu_cse,fri_opn,fri_cse,sat_opn,sat_cse,sun_opn,sun_cse,TIME_ZONE,showProductAisleNumber,showProductBayNumber,showMetaProducts,showStoreMapView,showInStockPageView,showProductLocations,leadCaptureEnabled,,,,,,,,,,,,,,,,,,,,,
418,S.W. Gainesville Lowe's,"LOWE'S OF S.W. GAINESVILLE, FL",3500 SW ARCHER ROAD,3500 SW Archer Rd,GAINESVILLE,Gainesville,FL,32608,(352) 376-9900,(352) 335-0125,(352) 376-2190,,29.62722803,-82.37517326,,N,,,US,06.00.00,21.00.00,06.00.00,21.00.00,06.00.00,21.00.00,06.00.00,21.00.00,06.00.00,22.00.00,06.00.00,22.00.00,08.00.00,20.00.00,America/New_York,TRUE,TRUE,TRUE,TRUE,TRUE,TRUE,FALSE,,,,,,,,,,,,,,,,,,,,,
3,S.E. Columbus Lowe's,"LOWE'S OF S.E. COLUMBUS, OH",2888 BRICE ROAD,2888 Brice Rd,COLUMBUS,Columbus,OH,43232,(614) 575-6000,(614) 575-5964,(614) 604-1044,,39.9207769,-82.83027739,,N,,,US,07.00.00,21.00.00,07.00.00,21.00.00,07.00.00,21.00.00,07.00.00,21.00.00,07.00.00,21.00.00,07.00.00,21.00.00,08.00.00,20.00.00,America/New_York,TRUE,TRUE,TRUE,TRUE,TRUE,TRUE,FALSE,,,,,,,,,,,,,,,,,,,,,
4,Rainier Lowe's,"LOWE'S OF RAINIER, WA",2700 RAINIER AVENUE SOUTH,2700 Rainier Ave South,SEATTLE,Seattle,WA,98144,(206) 760-0832,(206) 723-5367,(206) 403-2099,,47.57956219,-122.298188,,N,,,US,06.00.00,22.00.00,06.00.00,22.00.00,06.00.00,22.00.00,06.00.00,22.00.00,06.00.00,22.00.00,06.00.00,22.00.00,08.00.00,21.00.00,America/Los_Angeles,TRUE,TRUE,TRUE,TRUE,TRUE,TRUE,FALSE,,,,,,,,,,,,,,,,,,,,,
5,Shawnee Lowe's,"LOWE'S OF SHAWNEE, OK",4817 NORTH KICKAPOO STREET,4817 North Kickapoo St,SHAWNEE,Shawnee,OK,74804,(405) 878-8000,(405) 878-9402,(405) 788-3019,,35.38176908,-96.92790233,,N,,,US,07.00.00,21.00.00,07.00.00,21.00.00,07.00.00,21.00.00,07.00.00,21.00.00,07.00.00,21.00.00,07.00.00,21.00.00,08.00.00,20.00.00,America/Chicago,TRUE,TRUE,TRUE,TRUE,TRUE,TRUE,FALSE,,,,,,,,,,,,,,,,,,,,,
8,Columbia Lowe's,"LOWE'S OF COLUMBIA, MO",201 CONLEY ROAD NORTH,201 Conley Rd North,COLUMBIA,Columbia,MO,65201,(573) 499-6767,(573) 449-8341,(573) 499-6906,,38.95294057,-92.2961413,,N,,,US,06.00.00,22.00.00,06.00.00,22.00.00,06.00.00,22.00.00,06.00.00,22.00.00,06.00.00,22.00.00,06.00.00,22.00.00,08.00.00,20.00.00,America/Chicago,TRUE,TRUE,TRUE,TRUE,TRUE,TRUE,FALSE,,,,,,,,,,,,,,,,,,,,,
9,Bellefontaine Lowe's,"LOWE'S OF BELLEFONTAINE, OH",2168 US 68 SOUTH,2168 U.S. 68 South,BELLEFONTAINE,Bellefontaine,OH,43311,(937) 599-4000,(937) 599-4018,(937) 599-5069,,40.33007517,-83.7635166,,N,,,US,07.00.00,21.00.00,07.00.00,21.00.00,07.00.00,21.00.00,07.00.00,21.00.00,07.00.00,21.00.00,07.00.00,21.00.00,08.00.00,20.00.00,America/New_York,TRUE,TRUE,TRUE,TRUE,TRUE,TRUE,FALSE,,,,,,,,,,,,,,,,,,,,,
10,Tukwila Lowe's,"LOWE'S OF TUKWILA, WA",101 ANDOVER PARK EAST,101 Andover Park East,TUKWILA,Tukwila,WA,98188,(206) 243-5470,(206) 243-8843,(206) 403-2068,,47.46052912,-122.2509927,,N,,,US,06.00.00,22.00.00,06.00.00,22.00.00,06.00.00,22.00.00,06.00.00,22.00.00,06.00.00,22.00.00,06.00.00,22.00.00,08.00.00,21.00.00,America/Los_Angeles,TRUE,TRUE,TRUE,TRUE,TRUE,TRUE,FALSE,,,,,,,,,,,,,,,,,,,,,
12,Lafayette Lowe's,"LOWE'S OF LAFAYETTE, IN",100 NORTH CREASY LANE,100 North Creasy Ln,LAFAYETTE,Lafayette,IN,47905,(765) 448-1900,(765) 449-8539,(765) 269-2077,,40.41879704,-86.84101766,,N,,,US,06.00.00,22.00.00,06.00.00,22.00.00,06.00.00,22.00.00,06.00.00,22.00.00,06.00.00,22.00.00,06.00.00,22.00.00,08.00.00,20.00.00,America/New_York,TRUE,TRUE,TRUE,TRUE,TRUE,TRUE,FALSE,,,,,,,,,,,,,,,,,,,,,
15,Layton Lowe's,"LOWE'S OF LAYTON, UT",1055 W. ANTELOPE DRIVE,1055 W. Antelope Dr,LAYTON,Layton,UT,84041,(801) 776-4447,(801) 776-4797,(801) 820-1051,,41.08815351,-111.9851004,,N,,,US,06.00.00,22.00.00,06.00.00,22.00.00,06.00.00,22.00.00,06.00.00,22.00.00,06.00.00,22.00.00,06.00.00,22.00.00,08.00.00,20.00.00,America/Denver,TRUE,TRUE,TRUE,TRUE,TRUE,TRUE,FALSE,,,,,,,,,,,,,,,,,,,,,
16,Madisonville Lowe's,"LOWE'S OF MADISONVILLE, KY",550 ISLAND FORD ROAD,550 Island Ford Rd,MADISONVILLE,Madisonville,KY,42431,(270) 825-1999,(270) 821-1301,(270) 824-2249,,37.35070647,-87.48827347,,N,,,US,07.00.00,21.00.00,07.00.00,21.00.00,07.00.00,21.00.00,07.00.00,21.00.00,07.00.00,21.00.00,07.00.00,21.00.00,09.00.00,19.00.00,America/Chicago,TRUE,TRUE,TRUE,TRUE,TRUE,TRUE,FALSE,,,,,,,,,,,,,,,,,,,,,
18,Coeur D'alene Lowe's,"LOWE'S OF COEUR D'ALENE, ID",901 APPLEWAY AVENUE,901 Appleway Ave,COEUR D ALENE,Coeur D Alene,ID,83814,(208) 665-1313,(208) 666-0243,(208) 666-1102,,47.70210105,-116.8010156,,N,,,US,06.00.00,22.00.00,06.00.00,22.00.00,06.00.00,22.00.00,06.00.00,22.00.00,06.00.00,22.00.00,06.00.00,22.00.00,08.00.00,20.00.00,America/Los_Angeles,TRUE,TRUE,TRUE,TRUE,TRUE,TRUE,FALSE,,,,,,,,,,,,,,,,,,,,,
19,Fremont Lowe's,"LOWE'S OF FREMONT, OH","1952 NORTH STATE, ROUTE 53","1952 North State, Route 53",FREMONT,Fremont,OH,43420,(419) 355-0221,(419) 355-0243,(419) 334-7665,,41.37200545,-83.11959845,,N,,,US,07.00.00,21.00.00,07.00.00,21.00.00,07.00.00,21.00.00,07.00.00,21.00.00,07.00.00,21.00.00,07.00.00,21.00.00,08.00.00,19.00.00,America/New_York,TRUE,TRUE,TRUE,TRUE,TRUE,TRUE,FALSE,,,,,,,,,,,,,,,,,,,,,
21,Kahului Lowe's,"LOWE'S OF KAHULUI, HI","270 DAIRY ROAD, BUILDING A","270 Dairy Road, Building A",KAHULUI,Kahului,HI,96732,(808) 873-0383,(808) 873-0309,(808) 873-0813,,20.88120876,-156.4539812,,N,,,US,06.00.00,21.00.00,06.00.00,21.00.00,06.00.00,21.00.00,06.00.00,21.00.00,06.00.00,21.00.00,06.00.00,21.00.00,07.00.00,20.00.00,Pacific/Honolulu,TRUE,TRUE,TRUE,TRUE,TRUE,TRUE,FALSE,,,,,,,,,,,,,,,,,,,,,
22,Lebanon Lowe's,"LOWE'S OF LEBANON, PA",1755 QUENTIN ROAD,1755 Quentin Rd,LEBANON,Lebanon,PA,17042,(717) 228-3300,(717) 228-0175,(717) 202-6019,,40.31076982,-76.42625703,,N,,,US,06.00.00,22.00.00,06.00.00,22.00.00,06.00.00,22.00.00,06.00.00,22.00.00,06.00.00,22.00.00,06.00.00,22.00.00,08.00.00,20.00.00,America/New_York,TRUE,TRUE,TRUE,TRUE,TRUE,TRUE,FALSE,,,,,,,,,,,,,,,,,,,,,
26,Tacoma Lowe's,"LOWE'S OF TACOMA, WA",2701 SOUTH ORCHARD STREET,2701 South Orchard St,TACOMA,Tacoma,WA,98466,(253) 460-0471,(253) 460-7485,(253) 985-9027,,47.23653478,-122.5033095,,N,,,US,06.00.00,22.00.00,06.00.00,22.00.00,06.00.00,22.00.00,06.00.00,22.00.00,06.00.00,22.00.00,06.00.00,22.00.00,08.00.00,21.00.00,America/Los_Angeles,TRUE,TRUE,TRUE,TRUE,TRUE,TRUE,FALSE,,,,,,,,,,,,,,,,,,,,,
28,Texas City Lowe's,"LOWE'S OF TEXAS CITY, TX",3620 EMMETT F. LOWRY EXPWAY,3620 Emmett F. Lowry Expway,TEXAS CITY,Texas City,TX,77590,(409) 945-8888,(409) 945-0543,(409) 941-6509,,29.3973369,-94.95300126,,N,,,US,06.00.00,22.00.00,06.00.00,22.00.00,06.00.00,22.00.00,06.00.00,22.00.00,06.00.00,22.00.00,06.00.00,22.00.00,08.00.00,20.00.00,America/Chicago,TRUE,TRUE,TRUE,TRUE,TRUE,TRUE,FALSE,,,,,,,,,,,,,,,,,,,,,
31,Hendersonville Lowe's,"LOWE'S OF HENDERSONVILLE, NC","1415 7TH AVENUE, EAST","1415 7th Avenue, East",HENDERSONVILLE,Hendersonville,NC,28792,(828) 696-4900,(828) 696-0635,(828) 393-2019,,35.33054153,-82.45061212,,N,,,US,06.00.00,22.00.00,06.00.00,22.00.00,06.00.00,22.00.00,06.00.00,22.00.00,06.00.00,22.00.00,06.00.00,22.00.00,08.00.00,20.00.00,America/New_York,TRUE,TRUE,TRUE,TRUE,TRUE,TRUE,FALSE,,,,,,,,,,,,,,,,,,,,,
33,Newnan Lowe's,"LOWE'S OF NEWNAN, GA",955 BULLSBORO DRIVE,955 Bullsboro Dr,NEWNAN,Newnan,GA,30265,(770) 304-1600,(770) 253-2754,(678) 416-4052,,33.39372079,-84.74735586,,N,,,US,06.00.00,21.00.00,06.00.00,21.00.00,06.00.00,21.00.00,06.00.00,21.00.00,06.00.00,21.00.00,06.00.00,21.00.00,08.00.00,20.00.00,America/New_York,TRUE,TRUE,TRUE,TRUE,TRUE,TRUE,FALSE,,,,,,,,,,,,,,,,,,,,,
35,Mount Vernon Lowe's,"LOWE'S OF MOUNT VERNON, WA",1717 FREEWAY DRIVE,1717 Freeway Dr,MOUNT VERNON,Mount Vernon,WA,98273,(360) 424-5838,(360) 848-7718,(360) 404-6019,,48.43699557,-122.344553,,N,,,US,06.00.00,22.00.00,06.00.00,22.00.00,06.00.00,22.00.00,06.00.00,22.00.00,06.00.00,22.00.00,06.00.00,22.00.00,07.00.00,21.00.00,America/Los_Angeles,TRUE,TRUE,TRUE,TRUE,TRUE,TRUE,FALSE,,,,,,,,,,,,,,,,,,,,,
37,W. Columbus Lowe's,"LOWE'S OF W. COLUMBUS, OH",3600 PARK MILL RUN DRIVE,3600 Park Mill Run Dr,HILLIARD,Hilliard,OH,43026,(614) 529-5900,(614) 529-5930,(614) 606-9045,,40.02796531,-83.11888311,,N,http://images.lowes.com/general/n/NRdiamond.gif,,US,07.00.00,22.00.00,07.00.00,22.00.00,07.00.00,22.00.00,07.00.00,22.00.00,07.00.00,22.00.00,07.00.00,22.00.00,08.00.00,20.00.00,America/New_York,TRUE,TRUE,TRUE,TRUE,TRUE,TRUE,FALSE,,,,,,,,,,,,,,,,,,,,,
40,Bellevue Lowe's,"LOWE'S OF BELLEVUE, WA",11959 NORTHUP WAY,11959 Northup Way,BELLEVUE,Bellevue,WA,98005,(425) 646-9031,(425) 450-1193,(425) 698-6019,,47.63090476,-122.1814088,,N,,,US,06.00.00,22.00.00,06.00.00,22.00.00,06.00.00,22.00.00,06.00.00,22.00.00,06.00.00,22.00.00,06.00.00,22.00.00,08.00.00,21.00.00,America/Los_Angeles,TRUE,TRUE,TRUE,TRUE,TRUE,TRUE,FALSE,,,,,,,,,,,,,,,,,,,,,
42,Dayton-trotwood Lowe's,"LOWE'S OF DAYTON-TROTWOOD, OH",5252 SALEM AVENUE,5252 Salem Ave,TROTWOOD,Trotwood,OH,45426,(937) 854-8200,(937) 837-1118,(937) 248-2021,,39.8198677,-84.2878297,,N,,,US,06.00.00,22.00.00,06.00.00,22.00.00,06.00.00,22.00.00,06.00.00,22.00.00,06.00.00,22.00.00,06.00.00,22.00.00,08.00.00,20.00.00,America/New_York,TRUE,TRUE,TRUE,TRUE,TRUE,TRUE,FALSE,,,,,,,,,,,,,,,,,,,,,
44,Steubenville Lowe's,"LOWE'S OF STEUBENVILLE, OH",4115 MALL DRIVE,4115 Mall Dr,STEUBENVILLE,Steubenville,OH,43952,(740) 266-3500,(740) 266-3525,(740) 275-3049,,40.37209315,-80.67171508,,N,,,US,07.00.00,21.00.00,07.00.00,21.00.00,07.00.00,21.00.00,07.00.00,21.00.00,07.00.00,21.00.00,07.00.00,21.00.00,08.00.00,20.00.00,America/New_York,TRUE,TRUE,TRUE,TRUE,TRUE,TRUE,FALSE,,,,,,,,,,,,,,,,,,,,,
46,Benton Harbor Lowe's,"LOWE'S OF BENTON HARBOR, MI",1300 MALL DRIVE,1300 Mall Dr,BENTON HARBOR,Benton Harbor,MI,49022,(269) 927-6000,(269) 927-9070,(269) 757-9021,,42.07996318,-86.42613112,,N,,,US,06.00.00,22.00.00,06.00.00,22.00.00,06.00.00,22.00.00,06.00.00,22.00.00,06.00.00,22.00.00,06.00.00,22.00.00,08.00.00,20.00.00,America/New_York,TRUE,TRUE,TRUE,TRUE,TRUE,TRUE,FALSE,,,,,,,,,,,,,,,,,,,,,
52,Danville Lowe's,"LOWE'S OF DANVILLE, IL",3636 NORTH VERMILLION,3636 North Vermillion,DANVILLE,Danville,IL,61832,(217) 442-5200,(217) 442-3630,(217) 431-7001,,40.18850132,-87.63109426,,N,,,US,06.00.00,21.00.00,06.00.00,21.00.00,06.00.00,21.00.00,06.00.00,21.00.00,06.00.00,21.00.00,06.00.00,21.00.00,08.00.00,20.00.00,America/Chicago,TRUE,TRUE,TRUE,TRUE,TRUE,TRUE,FALSE,,,,,,,,,,,,,,,,,,,,,
53,W. Fort Wayne Lowe's,"LOWE'S OF W. FORT WAYNE, IN",4430 ILLINOIS ROAD,4430 Illinois Rd,FORT WAYNE,Fort Wayne,IN,46804,(260) 436-8855,(260) 459-6146,(260) 435-2319,,41.07614576,-85.19969711,,N,,,US,06.00.00,22.00.00,06.00.00,22.00.00,06.00.00,22.00.00,06.00.00,22.00.00,06.00.00,22.00.00,06.00.00,22.00.00,08.00.00,20.00.00,America/New_York,TRUE,TRUE,TRUE,TRUE,TRUE,TRUE,FALSE,,,,,,,,,,,,,,,,,,,,,
56,Norwalk Lowe's,"LOWE'S OF NORWALK, CA",14873 CARMENITA ROAD,14873 Carmenita Rd,NORWALK,Norwalk,CA,90650,(562) 926-0826,(562) 926-7441,(562) 405-9064,,33.896063,-118.0482247,,N,,,US,06.00.00,22.00.00,06.00.00,22.00.00,06.00.00,22.00.00,06.00.00,22.00.00,06.00.00,22.00.00,06.00.00,22.00.00,07.00.00,21.00.00,America/Los_Angeles,TRUE,TRUE,TRUE,TRUE,TRUE,TRUE,FALSE,,,,,,,,,,,,,,,,,,,,,
57,Burlington Lowe's,"LOWE'S OF BURLINGTON, IA",3435 AGENCY,3435 Agency,BURLINGTON,Burlington,IA,52601,(319) 752-3333,(319) 752-1861,(319) 758-8029,,40.81244092,-91.14932619,,N,,,US,06.00.00,21.00.00,06.00.00,21.00.00,06.00.00,21.00.00,06.00.00,21.00.00,06.00.00,21.00.00,06.00.00,21.00.00,08.00.00,20.00.00,America/Chicago,TRUE,TRUE,TRUE,TRUE,TRUE,TRUE,FALSE,,,,,,,,,,,,,,,,,,,,,
59,De Kalb Lowe's,"LOWE'S OF DE KALB, IL",2050 SYCAMORE ROAD,2050 Sycamore Rd,DEKALB,Dekalb,IL,60115,(815) 754-4800,(815) 787-4410,(815) 593-9019,,41.94887414,-88.72639935,,N,,,US,06.00.00,22.00.00,06.00.00,22.00.00,06.00.00,22.00.00,06.00.00,22.00.00,06.00.00,22.00.00,07.00.00,22.00.00,08.00.00,20.00.00,America/Chicago,TRUE,TRUE,TRUE,TRUE,TRUE,TRUE,FALSE,,,,,,,,,,,,,,,,,,,,,
61,Smokey Point Lowe's,"LOWE'S OF SMOKEY POINT, WA",3300 169TH PLACE NE,3300 169th Pl NE,ARLINGTON,Arlington,WA,98223,(360) 653-7405,(360) 653-7108,(360) 654-5059,,48.14980008,-122.1863364,,N,,,US,06.00.00,22.00.00,06.00.00,22.00.00,06.00.00,22.00.00,06.00.00,22.00.00,06.00.00,22.00.00,06.00.00,22.00.00,08.00.00,21.00.00,America/Los_Angeles,TRUE,TRUE,TRUE,TRUE,TRUE,TRUE,FALSE,,,,,,,,,,,,,,,,,,,,,
63,Midland Lowe's,"LOWE'S OF MIDLAND, TX",3315 NORTH LOOP 250 W.,3315 North Loop 250 W.,MIDLAND,Midland,TX,79707,(432) 689-2828,(432) 689-0613,(432) 848-0040,,32.01324328,-102.1603897,,N,,,US,06.00.00,22.00.00,06.00.00,22.00.00,06.00.00,22.00.00,06.00.00,22.00.00,06.00.00,22.00.00,06.00.00,22.00.00,08.00.00,20.00.00,America/Chicago,TRUE,TRUE,TRUE,TRUE,TRUE,TRUE,FALSE,,,,,,,,,,,,,,,,,,,,,
66,MT. Vernon Lowe's,"LOWE'S OF MT. VERNON, IL",111 DAVIDSON AVENUE,111 Davidson Ave,MOUNT VERNON,Mount Vernon,IL,62864,(618) 244-9400,(618) 244-9237,(618) 316-5021,,38.310363,-88.96146668,,N,,,US,06.00.00,22.00.00,06.00.00,22.00.00,06.00.00,22.00.00,06.00.00,22.00.00,06.00.00,22.00.00,06.00.00,22.00.00,08.00.00,20.00.00,America/Chicago,TRUE,TRUE,TRUE,TRUE,TRUE,TRUE,FALSE,,,,,,,,,,,,,,,,,,,,,
69,Battle Creek Lowe's,"LOWE'S OF BATTLE CREEK, MI",6122 B DRIVE NORTH,6122 B Dr North,BATTLE CREEK,Battle Creek,MI,49014,(269) 979-5500,(269) 979-5514,(269) 719-4019,,42.25941293,-85.17455881,,N,,,US,06.00.00,22.00.00,06.00.00,22.00.00,06.00.00,22.00.00,06.00.00,22.00.00,06.00.00,22.00.00,06.00.00,22.00.00,08.00.00,20.00.00,America/New_York,TRUE,TRUE,TRUE,TRUE,TRUE,TRUE,FALSE,,,,,,,,,,,,,,,,,,,,,
71,Goshen Lowe's,"LOWE'S OF GOSHEN, IN",2219 RIETH BOULEVARD,2219 Rieth Blvd,GOSHEN,Goshen,IN,46526,(574) 875-7000,(574) 875-1749,(574) 875-3715,,41.61774424,-85.89532431,,N,,,US,07.00.00,22.00.00,07.00.00,22.00.00,07.00.00,22.00.00,07.00.00,22.00.00,07.00.00,22.00.00,07.00.00,22.00.00,08.00.00,20.00.00,America/New_York,TRUE,TRUE,TRUE,TRUE,TRUE,TRUE,FALSE,,,,,,,,,,,,,,,,,,,,,
72,Ponca City Lowe's,"LOWE'S OF PONCA CITY, OK",3500 NORTH 14TH STREET,3500 North 14th St,PONCA CITY,Ponca City,OK,74601,(580) 765-1111,(580) 763-0143,(580) 765-1673,,36.7470125,-97.06883855,,N,,,US,07.00.00,21.00.00,07.00.00,21.00.00,07.00.00,21.00.00,07.00.00,21.00.00,07.00.00,21.00.00,07.00.00,21.00.00,09.00.00,20.00.00,America/Chicago,TRUE,TRUE,TRUE,TRUE,TRUE,TRUE,FALSE,,,,,,,,,,,,,,,,,,,,,
75,Wichita Falls Lowe's,"LOWE'S OF WICHITA FALLS, TX",3301 KELL BLVD.,3301 Kell Blvd,WICHITA FALLS,Wichita Falls,TX,76308,(940) 692-9955,(940) 692-6498,(940) 447-9050,,33.88059045,-98.53766598,,N,,,US,07.00.00,22.00.00,07.00.00,22.00.00,07.00.00,22.00.00,07.00.00,22.00.00,07.00.00,22.00.00,07.00.00,22.00.00,08.00.00,20.00.00,America/Chicago,TRUE,TRUE,TRUE,TRUE,TRUE,TRUE,FALSE,,,,,,,,,,,,,,,,,,,,,
77,Sandusky Lowe's,"LOWE'S OF SANDUSKY, OH",5500 MILAN ROAD - SPACE 304,5500 Milan Rd - Space 304,SANDUSKY,Sandusky,OH,44870,(419) 624-6000,(419) 624-4483,(419) 627-6968,,41.40710969,-82.6597516,,N,,,US,06.00.00,22.00.00,06.00.00,22.00.00,06.00.00,22.00.00,06.00.00,22.00.00,06.00.00,22.00.00,06.00.00,22.00.00,08.00.00,20.00.00,America/New_York,TRUE,TRUE,TRUE,TRUE,TRUE,TRUE,FALSE,,,,,,,,,,,,,,,,,,,,,
80,Champaign Lowe's,"LOWE'S OF CHAMPAIGN, IL",1904 NORTH PROSPECT AVENUE,1904 North Prospect Ave,CHAMPAIGN,Champaign,IL,61822,(217) 373-7300,(217) 398-0963,(217) 560-9179,,40.1390218,-88.25544712,,N,,,US,06.30.00,22.00.00,06.30.00,22.00.00,06.30.00,22.00.00,06.30.00,22.00.00,06.30.00,22.00.00,06.30.00,22.00.00,08.00.00,20.00.00,America/Chicago,TRUE,TRUE,TRUE,TRUE,TRUE,TRUE,FALSE,,,,,,,,,,,,,,,,,,,,,
82,Lufkin Lowe's,"LOWE'S OF LUFKIN, TX",3501 SOUTH MEDFORD,3501 South Medford,LUFKIN,Lufkin,TX,75901,(936) 632-8333,(936) 632-8387,(936) 633-1919,,31.31395048,-94.7108941,,N,,,US,06.00.00,21.00.00,06.00.00,21.00.00,06.00.00,21.00.00,06.00.00,21.00.00,06.00.00,21.00.00,06.00.00,21.00.00,08.00.00,19.00.00,America/Chicago,TRUE,TRUE,TRUE,TRUE,TRUE,TRUE,FALSE,,,,,,,,,,,,,,,,,,,,,
86,Virginia Beach Lowe's,"LOWE'S OF VIRGINIA BEACH, VA",3565 HOLLAND ROAD,3565 Holland Rd,VIRGINIA BEACH,Virginia Beach,VA,23452,(757) 631-2100,(757) 631-0197,(757) 448-6521,,36.81092949,-76.09680463,,N,,,US,06.00.00,22.00.00,06.00.00,22.00.00,06.00.00,22.00.00,06.00.00,22.00.00,06.00.00,22.00.00,06.00.00,22.00.00,08.00.00,20.00.00,America/New_York,TRUE,TRUE,TRUE,TRUE,TRUE,TRUE,FALSE,,,,,,,,,,,,,,,,,,,,,
88,Adrian Lowe's,"LOWE'S OF ADRIAN, MI",1369 DIVISION STREET,1369 Division St,ADRIAN,Adrian,MI,49221,(517) 266-1000,(517) 266-1302,(517) 266-4639,,41.87609838,-84.03135875,,N,,,US,07.00.00,22.00.00,07.00.00,22.00.00,07.00.00,22.00.00,07.00.00,22.00.00,07.00.00,22.00.00,07.00.00,22.00.00,08.00.00,20.00.00,America/New_York,TRUE,TRUE,TRUE,TRUE,TRUE,TRUE,FALSE,,,,,,,,,,,,,,,,,,,,,
89,Beavercreek Lowe's,"LOWE'S OF BEAVERCREEK, OH",2850-I CENTRE DRIVE,2850-I Centre Dr,FAIRBORN,Fairborn,OH,45324,(937) 427-1110,(937) 427-6433,(937) 306-3019,,39.77373712,-84.04783954,,N,,,US,06.00.00,22.00.00,06.00.00,22.00.00,06.00.00,22.00.00,06.00.00,22.00.00,06.00.00,22.00.00,06.00.00,22.00.00,08.00.00,20.00.00,America/New_York,TRUE,TRUE,TRUE,TRUE,TRUE,TRUE,FALSE,,,,,,,,,,,,,,,,,,,,,
90,San Angelo Lowe's,"LOWE'S OF SAN ANGELO, TX",5301 SHERWOOD WAY,5301 Sherwood Way,SAN ANGELO,San Angelo,TX,76904,(325) 942-3100,(325) 944-8588,(325) 315-9093,,31.42794176,-100.5074125,,N,,,US,06.00.00,22.00.00,06.00.00,22.00.00,06.00.00,22.00.00,06.00.00,22.00.00,06.00.00,22.00.00,06.00.00,22.00.00,08.00.00,20.00.00,America/Chicago,TRUE,TRUE,TRUE,TRUE,TRUE,TRUE,FALSE,,,,,,,,,,,,,,,,,,,,,
91,Corinth Lowe's,"LOWE'S OF CORINTH, MS",1800 SOUTH PARKWAY,1800 South Pkwy,CORINTH,Corinth,MS,38834,(662) 287-9000,(662) 655-9337,(622) 603-0021,,34.91449932,-88.50733723,,N,,,US,07.00.00,21.00.00,07.00.00,21.00.00,07.00.00,21.00.00,07.00.00,21.00.00,07.00.00,21.00.00,07.00.00,21.00.00,09.00.00,19.00.00,America/Chicago,TRUE,TRUE,TRUE,TRUE,TRUE,TRUE,FALSE,,,,,,,,,,,,,,,,,,,,,
92,Galesburg Lowe's,"LOWE'S OF GALESBURG, IL",531 WEST CARL SANDBURG DRIVE,531 West Carl Sandburg Dr,GALESBURG,Galesburg,IL,61401,(309) 342-4488,(309) 342-4586,(309) 345-2025,,40.97671155,-90.37863274,,N,,,US,06.30.00,21.00.00,06.30.00,21.00.00,06.30.00,21.00.00,06.30.00,21.00.00,06.30.00,21.00.00,06.30.00,21.00.00,08.00.00,20.00.00,America/Chicago,TRUE,TRUE,TRUE,TRUE,TRUE,TRUE,FALSE,,,,,,,,,,,,,,,,,,,,,
95,Beaumont Lowe's,"LOWE'S OF BEAUMONT, TX",4120 DOWLEN ROAD,4120 Dowlen Rd,BEAUMONT,Beaumont,TX,77706,(409) 898-2200,(409) 898-4944,(409) 898-6428,,30.1190383,-94.16478977,,N,,,US,06.00.00,22.00.00,06.00.00,22.00.00,06.00.00,22.00.00,06.00.00,22.00.00,06.00.00,22.00.00,06.00.00,22.00.00,08.00.00,20.00.00,America/Chicago,TRUE,TRUE,TRUE,TRUE,TRUE,TRUE,FALSE,,,,,,,,,,,,,,,,,,,,,
97,Baytown Lowe's,"LOWE'S OF BAYTOWN, TX",5002 GARTH ROAD,5002 Garth Rd,BAYTOWN,Baytown,TX,77521,(281) 421-1055,(281) 421-3174,(281) 421-3189,,29.77951171,-94.97614646,,N,,,US,06.00.00,22.00.00,06.00.00,22.00.00,06.00.00,22.00.00,06.00.00,22.00.00,06.00.00,22.00.00,06.00.00,22.00.00,08.00.00,20.00.00,America/Chicago,TRUE,TRUE,TRUE,TRUE,TRUE,TRUE,FALSE,,,,,,,,,,,,,,,,,,,,,
98,Katy Lowe's,"LOWE'S OF KATY, TX",19935 KATY FREEWAY,19935 Katy Freeway,HOUSTON,Houston,TX,77094,(281) 492-7980,(281) 492-6207,(281) 492-3210,,29.78331476,-95.71389353,,N,http://images.lowes.com/general/n/NRdiamond.gif,,US,06.00.00,22.00.00,06.00.00,22.00.00,06.00.00,22.00.00,06.00.00,22.00.00,06.00.00,22.00.00,06.00.00,22.00.00,08.00.00,20.00.00,America/Chicago,TRUE,TRUE,TRUE,TRUE,TRUE,TRUE,FALSE,,,,,,,,,,,,,,,,,,,,,
102,Aurora Lowe's,"LOWE'S OF AURORA, CO",1701 SOUTH HAVANA STREET,1701 South Havana St,AURORA,Aurora,CO,80012,(303) 369-4222,(303) 369-4004,(303) 369-5791,,39.68446925,-104.8674452,,N,,,US,06.00.00,22.00.00,06.00.00,22.00.00,06.00.00,22.00.00,06.00.00,22.00.00,06.00.00,22.00.00,06.00.00,22.00.00,08.00.00,20.00.00,America/Denver,TRUE,TRUE,TRUE,TRUE,TRUE,TRUE,FALSE,,,,,,,,,,,,,,,,,,,,,
103,Bryan Lowe's,"LOWE'S OF BRYAN, TX",3225 FREEDOM BLVD.,3225 Freedom Blvd,BRYAN,Bryan,TX,77802,(979) 774-4141,(979) 774-9653,(979) 774-8319,,30.65839255,-96.32671156,,N,,,US,06.00.00,22.00.00,06.00.00,22.00.00,06.00.00,22.00.00,06.00.00,22.00.00,06.00.00,22.00.00,06.00.00,22.00.00,08.00.00,20.00.00,America/Chicago,TRUE,TRUE,TRUE,TRUE,TRUE,TRUE,FALSE,,,,,,,,,,,,,,,,,,,,,
104,Moline Lowe's,"LOWE'S OF MOLINE, IL",3820 44TH AVENUE DRIVE,3820 44th Ave Dr,MOLINE,Moline,IL,61265,(309) 736-1100,(309) 736-1811,(309) 757-3768,,41.46926644,-90.48348537,,N,,,US,06.00.00,21.00.00,06.00.00,21.00.00,06.00.00,21.00.00,06.00.00,21.00.00,06.00.00,21.00.00,06.00.00,21.00.00,08.00.00,20.00.00,America/Chicago,TRUE,TRUE,TRUE,TRUE,TRUE,TRUE,FALSE,,,,,,,,,,,,,,,,,,,,,
107,Davenport Lowe's,"LOWE'S OF DAVENPORT, IA",3955 ELMORE AVENUE,3955 Elmore Ave,DAVENPORT,Davenport,IA,52807,(563) 344-9000,(563) 355-1177,(563) 344-5479,,41.56149211,-90.52480627,,N,,,US,06.00.00,21.00.00,06.00.00,21.00.00,06.00.00,21.00.00,06.00.00,21.00.00,06.00.00,21.00.00,06.00.00,21.00.00,08.00.00,20.00.00,America/Chicago,TRUE,TRUE,TRUE,TRUE,TRUE,TRUE,FALSE,,,,,,,,,,,,,,,,,,,,,
110,ST. Clairsville Lowe's,"LOWE'S OF ST. CLAIRSVILLE, OH",50421 VALLEY PLAZA DRIVE,50421 Valley Plaza Dr,SAINT CLAIRSVILLE,Saint Clairsville,OH,43950,(740) 699-3000,(740) 699-3024,(740) 296-2021,,40.07238821,-80.87832219,,N,,,US,07.00.00,21.00.00,07.00.00,21.00.00,07.00.00,21.00.00,07.00.00,21.00.00,07.00.00,21.00.00,07.00.00,21.00.00,08.00.00,20.00.00,America/New_York,TRUE,TRUE,TRUE,TRUE,TRUE,TRUE,FALSE,,,,,,,,,,,,,,,,,,,,,
113,Midlothian Lowe's,"LOWE'S OF MIDLOTHIAN, VA",1512 WEST KOGER CENTER DRIVE,1512 West Koger Center Dr,RICHMOND,Richmond,VA,23235,(804) 379-8500,(804) 379-3025,(804) 893-9028,,37.51451057,-77.60898754,,N,,,US,06.00.00,22.00.00,06.00.00,22.00.00,06.00.00,22.00.00,06.00.00,22.00.00,06.00.00,22.00.00,06.00.00,22.00.00,08.00.00,20.00.00,America/New_York,TRUE,TRUE,TRUE,TRUE,TRUE,TRUE,FALSE,,,,,,,,,,,,,,,,,,,,,
116,Muncie Lowe's,"LOWE'S OF MUNCIE, IN",4401 WEST CLARA LANE,4401 West Clara Ln,MUNCIE,Muncie,IN,47304,(765) 287-1606,(765) 287-0353,(765) 372-3021,,40.21736028,-85.43829874,,N,,,US,06.00.00,22.00.00,06.00.00,22.00.00,06.00.00,22.00.00,06.00.00,22.00.00,06.00.00,22.00.00,06.00.00,22.00.00,08.00.00,20.00.00,America/New_York,TRUE,TRUE,TRUE,TRUE,TRUE,TRUE,FALSE,,,,,,,,,,,,,,,,,,,,,
117,Dubuque Lowe's,"LOWE'S OF DUBUQUE, IA",4100 DODGE STREET,4100 Dodge St,DUBUQUE,Dubuque,IA,52003,(563) 588-8008,(563) 588-9954,(563) 557-3759,,42.48813292,-90.73260348,,N,,,US,06.30.00,21.00.00,06.30.00,21.00.00,06.30.00,21.00.00,06.30.00,21.00.00,06.30.00,21.00.00,06.30.00,21.00.00,08.00.00,20.00.00,America/Chicago,TRUE,TRUE,TRUE,TRUE,TRUE,TRUE,FALSE,,,,,,,,,,,,,,,,,,,,,
118,Kankakee Lowe's,"LOWE'S OF KANKAKEE, IL",860 KINZIE AVENUE,860 Kinzie Ave,BRADLEY,Bradley,IL,60915,(815) 933-5555,(815) 933-9799,(815) 214-6049,,41.15932343,-87.84777885,,N,,,US,06.00.00,22.00.00,06.00.00,22.00.00,06.00.00,22.00.00,06.00.00,22.00.00,06.00.00,22.00.00,06.00.00,22.00.00,08.00.00,20.00.00,America/Chicago,TRUE,TRUE,TRUE,TRUE,TRUE,TRUE,FALSE,,,,,,,,,,,,,,,,,,,,,
119,Waipahu Lowe's,"LOWE'S OF WAIPAHU, HI",94-805 LUMIAINA STREET,94-805 Lumiaina St,WAIPAHU,Waipahu,HI,96797,(808) 676-8381,(808) 676-2402,(808) 676-3312,,21.39882738,-158.0084224,,N,,,US,06.00.00,22.00.00,06.00.00,22.00.00,06.00.00,22.00.00,06.00.00,22.00.00,06.00.00,22.00.00,06.00.00,22.00.00,07.00.00,21.00.00,Pacific/Honolulu,TRUE,TRUE,TRUE,TRUE,TRUE,TRUE,FALSE,,,,,,,,,,,,,,,,,,,,,
120,Belle Vernon Lowe's,"LOWE'S OF BELLE VERNON, PA",203 SARAH WAY,203 Sarah Way,BELLE VERNON,Belle Vernon,PA,15012,(724) 930-7000,(724) 930-8502,(724) 247-8021,,40.13748507,-79.8490594,,N,,,US,07.00.00,21.00.00,07.00.00,21.00.00,07.00.00,21.00.00,07.00.00,21.00.00,07.00.00,21.00.00,07.00.00,21.00.00,08.00.00,20.00.00,America/New_York,TRUE,TRUE,TRUE,TRUE,TRUE,TRUE,FALSE,,,,,,,,,,,,,,,,,,,,,
124,Muskogee Lowe's,"LOWE'S OF MUSKOGEE, OK",2901 OLD SHAWNEE,2901 Old Shawnee,MUSKOGEE,Muskogee,OK,74403,(918) 686-8800,(918) 682-3696,(918) 577-9021,,35.76808003,-95.33029882,,N,,,US,07.00.00,21.00.00,07.00.00,21.00.00,07.00.00,21.00.00,07.00.00,21.00.00,07.00.00,21.00.00,07.00.00,21.00.00,08.00.00,20.00.00,America/Chicago,TRUE,TRUE,TRUE,TRUE,TRUE,TRUE,FALSE,,,,,,,,,,,,,,,,,,,,,
126,E. Fort Wayne Lowe's,"LOWE'S OF E. FORT WAYNE, IN",1929 NORTH COLISEUM BLVD.,1929 North Coliseum Blvd,FORT WAYNE,Fort Wayne,IN,46805,(260) 471-4000,(260) 471-7669,(260) 481-4236,,41.09554646,-85.09022641,,N,,,US,06.00.00,22.00.00,06.00.00,22.00.00,06.00.00,22.00.00,06.00.00,22.00.00,06.00.00,22.00.00,06.00.00,22.00.00,08.00.00,20.00.00,America/New_York,TRUE,TRUE,TRUE,TRUE,TRUE,TRUE,FALSE,,,,,,,,,,,,,,,,,,,,,
127,Sherman Lowe's,"LOWE'S OF SHERMAN, TX",2801 US HIGHWAY 75 NORTH,2801 U.S. Highway 75 North,SHERMAN,Sherman,TX,75090,(903) 892-8181,(903) 813-1011,(903) 868-8778,,33.66819763,-96.60753289,,N,,,US,06.00.00,22.00.00,06.00.00,22.00.00,06.00.00,22.00.00,06.00.00,22.00.00,06.00.00,22.00.00,06.00.00,22.00.00,08.00.00,20.00.00,America/Chicago,TRUE,TRUE,TRUE,TRUE,TRUE,TRUE,FALSE,,,,,,,,,,,,,,,,,,,,,
129,Waco Lowe's,"LOWE'S OF WACO, TX",201 NORTH NEW ROAD,201 North New Rd,WACO,Waco,TX,76710,(254) 776-9300,(254) 776-3651,(254) 224-0211,,31.52463694,-97.16899084,,N,,,US,06.00.00,21.00.00,06.00.00,21.00.00,06.00.00,21.00.00,06.00.00,21.00.00,06.00.00,21.00.00,06.00.00,21.00.00,08.00.00,19.00.00,America/Chicago,TRUE,TRUE,TRUE,TRUE,TRUE,TRUE,FALSE,,,,,,,,,,,,,,,,,,,,,
137,Lake Jackson Lowe's,"LOWE'S OF LAKE JACKSON, TX",200 HIGHWAY 332 EAST,200 Highway 332 East,LAKE JACKSON,Lake Jackson,TX,77566,(979) 297-9999,(979) 285-9053,(979) 299-3568,,29.04194926,-95.45616764,,N,,,US,06.00.00,22.00.00,06.00.00,22.00.00,06.00.00,22.00.00,06.00.00,22.00.00,06.00.00,22.00.00,06.00.00,22.00.00,08.00.00,20.00.00,America/Chicago,TRUE,TRUE,TRUE,TRUE,TRUE,TRUE,FALSE,,,,,,,,,,,,,,,,,,,,,
138,Abilene Lowe's,"LOWE'S OF ABILENE, TX",4134 RIDGEMONT DRIVE,4134 Ridgemont Dr,ABILENE,Abilene,TX,79606,(325) 692-2727,(325) 692-6791,(325) 733-9044,,32.40200428,-99.76623937,,N,,,US,06.00.00,22.00.00,06.00.00,22.00.00,06.00.00,22.00.00,06.00.00,22.00.00,06.00.00,22.00.00,06.00.00,22.00.00,08.00.00,20.00.00,America/Chicago,TRUE,TRUE,TRUE,TRUE,TRUE,TRUE,FALSE,,,,,,,,,,,,,,,,,,,,,
139,Hermitage Lowe's,"LOWE'S OF HERMITAGE, PA",3000 GLIMCHER BLVD.,3000 Glimcher Blvd,HERMITAGE,Hermitage,PA,16148,(724) 983-5360,(724) 983-5379,(724) 308-4021,,41.23007232,-80.45198021,,N,,,US,06.00.00,22.00.00,06.00.00,22.00.00,06.00.00,22.00.00,06.00.00,22.00.00,06.00.00,22.00.00,06.00.00,22.00.00,08.00.00,20.00.00,America/New_York,TRUE,TRUE,TRUE,TRUE,TRUE,TRUE,FALSE,,,,,,,,,,,,,,,,,,,,,
140,Issaquah Lowe's,"LOWE'S OF ISSAQUAH, WA",1625 11TH AVENUE N.W.,1625 11th Ave N.W.,ISSAQUAH,Issaquah,WA,98027,(425) 391-3355,(425) 313-9583,(425) 416-1019,,47.54938152,-122.0560085,,N,,,US,06.00.00,22.00.00,06.00.00,22.00.00,06.00.00,22.00.00,06.00.00,22.00.00,06.00.00,22.00.00,06.00.00,22.00.00,08.00.00,21.00.00,America/Los_Angeles,TRUE,TRUE,TRUE,TRUE,TRUE,TRUE,FALSE,,,,,,,,,,,,,,,,,,,,,
145,N.W. Indianapolis Lowe's,"LOWE'S OF N.W. INDIANAPOLIS, IN",8440 MICHIGAN ROAD,8440 Michigan Rd,INDIANAPOLIS,Indianapolis,IN,46268,(317) 875-7500,(317) 228-2225,(317) 405-2169,,39.90860847,-86.22287363,,N,,,US,06.00.00,22.00.00,06.00.00,22.00.00,06.00.00,22.00.00,06.00.00,22.00.00,06.00.00,22.00.00,06.00.00,22.00.00,08.00.00,20.00.00,America/New_York,TRUE,TRUE,TRUE,TRUE,TRUE,TRUE,FALSE,,,,,,,,,,,,,,,,,,,,,
146,Jackson Lowe's,"LOWE'S OF JACKSON, MI",1535 BOARDMAN ROAD,1535 Boardman Rd,JACKSON,Jackson,MI,49202,(517) 796-5500,(517) 796-5525,(517) 392-9913,,42.26810175,-84.43624638,,N,,,US,06.00.00,22.00.00,06.00.00,22.00.00,06.00.00,22.00.00,06.00.00,22.00.00,06.00.00,22.00.00,06.00.00,22.00.00,08.00.00,20.00.00,America/New_York,TRUE,TRUE,TRUE,TRUE,TRUE,TRUE,FALSE,,,,,,,,,,,,,,,,,,,,,
149,Everett Lowe's,"LOWE'S OF EVERETT, WA",2505 PACIFIC AVENUE,2505 Pacific Ave,EVERETT,Everett,WA,98201,(425) 259-2017,(425) 252-0425,(425) 320-9024,,47.97756187,-122.1973104,,N,,,US,06.00.00,22.00.00,06.00.00,22.00.00,06.00.00,22.00.00,06.00.00,22.00.00,06.00.00,22.00.00,06.00.00,22.00.00,08.00.00,21.00.00,America/Los_Angeles,TRUE,TRUE,TRUE,TRUE,TRUE,TRUE,FALSE,,,,,,,,,,,,,,,,,,,,,
152,Wenatchee Lowe's,"LOWE'S OF WENATCHEE, WA",1200 WALLA WALLA AVENUE,1200 Walla Walla Ave,WENATCHEE,Wenatchee,WA,98801,(509) 663-4530,(509) 665-7605,(509) 665-9381,,47.44052537,-120.3197909,,N,,,US,06.00.00,22.00.00,06.00.00,22.00.00,06.00.00,22.00.00,06.00.00,22.00.00,06.00.00,22.00.00,06.00.00,22.00.00,08.00.00,20.00.00,America/Los_Angeles,TRUE,TRUE,TRUE,TRUE,TRUE,TRUE,FALSE,,,,,,,,,,,,,,,,,,,,,
159,San Marcos Lowe's,"LOWE'S OF SAN MARCOS, TX",2211 IH 35 SOUTH,2211 South Interstate 35,SAN MARCOS,San Marcos,TX,78666,(512) 393-3111,(512) 393-3130,(512) 393-2969,,29.85446498,-97.95193938,,N,,,US,06.00.00,22.00.00,06.00.00,22.00.00,06.00.00,22.00.00,06.00.00,22.00.00,06.00.00,22.00.00,06.00.00,22.00.00,08.00.00,20.00.00,America/Chicago,TRUE,TRUE,TRUE,TRUE,TRUE,TRUE,FALSE,,,,,,,,,,,,,,,,,,,,,
165,Butler Lowe's,"LOWE'S OF BUTLER, PA",500 MORAINE POINT PLAZA,500 Moraine Point Plaza,BUTLER,Butler,PA,16001,(724) 285-4000,(724) 285-2894,(724) 234-6021,,40.87159856,-79.94973955,,N,,,US,06.00.00,22.00.00,06.00.00,22.00.00,06.00.00,22.00.00,06.00.00,22.00.00,06.00.00,22.00.00,06.00.00,22.00.00,08.00.00,20.00.00,America/New_York,TRUE,TRUE,TRUE,TRUE,TRUE,TRUE,FALSE,,,,,,,,,,,,,,,,,,,,,
167,Peoria Lowe's,"LOWE'S OF PEORIA, IL",5001 NORTH BIG HOLLOW ROAD,5001 North Big Hollow Rd,PEORIA,Peoria,IL,61615,(309) 692-1900,(309) 692-0810,(309) 229-2073,,40.74824786,-89.63831374,,N,,,US,06.00.00,22.00.00,06.00.00,22.00.00,06.00.00,22.00.00,06.00.00,22.00.00,06.00.00,22.00.00,06.00.00,22.00.00,08.00.00,20.00.00,America/Chicago,TRUE,TRUE,TRUE,TRUE,TRUE,TRUE,FALSE,,,,,,,,,,,,,,,,,,,,,
168,Hamilton Lowe's,"LOWE'S OF HAMILTON, OH",1495 MAIN STREET,1495 Main St,HAMILTON,Hamilton,OH,45013,(513) 737-3700,(513) 737-9175,(513) 714-1173,,39.42432948,-84.59879752,,N,,,US,06.00.00,21.00.00,06.00.00,21.00.00,06.00.00,21.00.00,06.00.00,21.00.00,06.00.00,21.00.00,06.00.00,21.00.00,08.00.00,20.00.00,America/New_York,TRUE,TRUE,TRUE,TRUE,TRUE,TRUE,FALSE,,,,,,,,,,,,,,,,,,,,,
172,Spokane Valley Lowe's,"LOWE'S OF SPOKANE VALLEY, WA",E. 5204 SPRAGUE AVENUE,E. 5204 Sprague Ave,SPOKANE,Spokane,WA,99212,(509) 533-0066,(509) 533-9715,(509) 533-9569,,47.65628983,-117.3346727,,N,,,US,06.00.00,22.00.00,06.00.00,22.00.00,06.00.00,22.00.00,06.00.00,22.00.00,06.00.00,22.00.00,06.00.00,22.00.00,08.00.00,20.00.00,America/Los_Angeles,TRUE,TRUE,TRUE,TRUE,TRUE,TRUE,FALSE,,,,,,,,,,,,,,,,,,,,,
174,Texarkana Lowe's,"LOWE'S OF TEXARKANA, TX",501 WALTON DRIVE,501 Walton Dr,TEXARKANA,Texarkana,TX,75501,(903) 831-5700,(903) 832-4155,(903) 838-1919,,33.4477839,-94.10048805,,N,,,US,06.00.00,22.00.00,06.00.00,22.00.00,06.00.00,22.00.00,06.00.00,22.00.00,06.00.00,22.00.00,06.00.00,22.00.00,08.00.00,20.00.00,America/Chicago,TRUE,TRUE,TRUE,TRUE,TRUE,TRUE,FALSE,,,,,,,,,,,,,,,,,,,,,
175,Johnstown Lowe's,"LOWE'S OF JOHNSTOWN, PA",630 SOLOMON RUN ROAD,630 Solomon Run Rd,JOHNSTOWN,Johnstown,PA,15904,(814) 535-1212,(814) 536-3609,(814) 248-7421,,40.30671866,-78.83053325,,N,,,US,06.00.00,22.00.00,06.00.00,22.00.00,06.00.00,22.00.00,06.00.00,22.00.00,06.00.00,22.00.00,06.00.00,22.00.00,08.00.00,20.00.00,America/New_York,TRUE,TRUE,TRUE,TRUE,TRUE,TRUE,FALSE,,,,,,,,,,,,,,,,,,,,,
177,Statesboro Lowe's,"LOWE'S OF STATESBORO, GA",24065 HWY 80 EAST,24065 Hwy 80 East,STATESBORO,Statesboro,GA,30461,(912) 489-1000,(912) 489-8765,(912) 212-2219,,32.43114358,-81.75506101,,N,,,US,07.00.00,21.00.00,07.00.00,21.00.00,07.00.00,21.00.00,07.00.00,21.00.00,07.00.00,21.00.00,07.00.00,21.00.00,08.00.00,19.00.00,America/New_York,TRUE,TRUE,TRUE,TRUE,TRUE,TRUE,FALSE,,,,,,,,,,,,,,,,,,,,,
178,Orem Lowe's,"LOWE'S OF OREM, UT",140 WEST UNIVERSITY PARKWAY,140 West University Pkwy,OREM,Orem,UT,84058,(801) 229-1485,(801) 229-1507,(801) 851-9940,,40.27430424,-111.6987608,,N,,,US,06.00.00,22.00.00,06.00.00,22.00.00,06.00.00,22.00.00,06.00.00,22.00.00,06.00.00,22.00.00,06.00.00,22.00.00,07.00.00,20.00.00,America/Denver,TRUE,TRUE,TRUE,TRUE,TRUE,TRUE,FALSE,,,,,,,,,,,,,,,,,,,,,
179,Lake City Lowe's,"LOWE'S OF LAKE CITY, FL",3463 NW BASCOM NORRIS DRIVE,3463 N.W. Bascom Norris Dr,LAKE CITY,Lake City,FL,32055,(386) 719-6622,(386) 719-2058,(386) 269-5021,,30.18314522,-82.67418813,,N,,,US,06.00.00,21.00.00,06.00.00,21.00.00,06.00.00,21.00.00,06.00.00,21.00.00,06.00.00,21.00.00,06.00.00,21.00.00,08.00.00,20.00.00,America/New_York,TRUE,TRUE,TRUE,TRUE,TRUE,TRUE,FALSE,,,,,,,,,,,,,,,,,,,,,
180,Greensburg Lowe's,"LOWE'S OF GREENSBURG, PA","HEMPFIELD SQUARE, RT. 30 W.","Hempfield Square, Rt. 30 W.",GREENSBURG,Greensburg,PA,15601,(724) 853-6950,(724) 853-6963,(724) 205-7019,,40.30408018,-79.59745424,,N,,,US,06.00.00,22.00.00,06.00.00,22.00.00,06.00.00,22.00.00,06.00.00,22.00.00,06.00.00,22.00.00,06.00.00,22.00.00,08.00.00,20.00.00,America/New_York,TRUE,TRUE,TRUE,TRUE,TRUE,TRUE,FALSE,,,,,,,,,,,,,,,,,,,,,
181,S.W. Columbus Lowe's,"LOWE'S OF S.W. COLUMBUS, OH",1675 GEORGESVILLE SQUARE DRIVE,1675 Georgesville Square Dr,COLUMBUS,Columbus,OH,43228,(614) 853-6200,(614) 853-6226,(614) 385-9029,,39.91846313,-83.11882861,,N,http://images.lowes.com/general/n/NRdiamond.gif,,US,07.00.00,21.00.00,07.00.00,21.00.00,07.00.00,21.00.00,07.00.00,21.00.00,07.00.00,21.00.00,07.00.00,21.00.00,08.00.00,20.00.00,America/New_York,TRUE,TRUE,TRUE,TRUE,TRUE,TRUE,FALSE,,,,,,,,,,,,,,,,,,,,,
183,Denton Lowe's,"LOWE'S OF DENTON, TX",1255 SOUTH LOOP 288,1255 South Loop 288,DENTON,Denton,TX,76205,(940) 320-1938,(940) 320-1853,(940) 898-9789,,33.19685191,-97.09013595,,N,,,US,06.00.00,22.00.00,06.00.00,22.00.00,06.00.00,22.00.00,06.00.00,22.00.00,06.00.00,22.00.00,06.00.00,22.00.00,08.00.00,20.00.00,America/Chicago,TRUE,TRUE,TRUE,TRUE,TRUE,TRUE,FALSE,,,,,,,,,,,,,,,,,,,,,
186,S. Baton Rouge Lowe's,"LOWE'S OF S. BATON ROUGE, LA",10303 SOUTH MALL DRIVE,10303 South Mall Dr,BATON ROUGE,Baton Rouge,LA,70809,(225) 291-5100,(225) 291-4082,(225) 615-3190,,30.37614906,-91.06568099,,N,,,US,06.00.00,22.00.00,06.00.00,22.00.00,06.00.00,22.00.00,06.00.00,22.00.00,06.00.00,22.00.00,06.00.00,22.00.00,08.00.00,20.00.00,America/Chicago,TRUE,TRUE,TRUE,TRUE,TRUE,TRUE,FALSE,,,,,,,,,,,,,,,,,,,,,
187,Uniontown Lowe's,"LOWE'S OF UNIONTOWN, PA",79 MATTHEW DRIVE,79 Matthew Dr,UNIONTOWN,Uniontown,PA,15401,(724) 430-1800,(724) 430-0106,(724) 415-4021,,39.9048844,-79.75075825,,N,,,US,06.00.00,22.00.00,06.00.00,22.00.00,06.00.00,22.00.00,06.00.00,22.00.00,06.00.00,22.00.00,06.00.00,22.00.00,08.00.00,20.00.00,America/New_York,TRUE,TRUE,TRUE,TRUE,TRUE,TRUE,FALSE,,,,,,,,,,,,,,,,,,,,,
188,Boardman Lowe's,"LOWE'S OF BOARDMAN, OH",1100 DORAL DRIVE,1100 Doral Dr,YOUNGSTOWN,Youngstown,OH,44514,(330) 965-4500,(330) 965-4519,(330) 314-1138,,41.03125937,-80.63325057,,N,,,US,06.00.00,22.00.00,06.00.00,22.00.00,06.00.00,22.00.00,06.00.00,22.00.00,06.00.00,22.00.00,06.00.00,22.00.00,08.00.00,20.00.00,America/New_York,TRUE,TRUE,TRUE,TRUE,TRUE,TRUE,FALSE,,,,,,,,,,,,,,,,,,,,,
190,Cartersville Lowe's,"LOWE'S OF CARTERSVILLE, GA",301 MARKETPLACE BOULEVARD,301 Marketplace Blvd,CARTERSVILLE,Cartersville,GA,30120,(770) 382-9500,(770) 607-1623,(678) 792-1019,,34.20012967,-84.78945121,,N,,Yes,US,07.00.00,21.00.00,07.00.00,21.00.00,07.00.00,21.00.00,07.00.00,21.00.00,07.00.00,21.00.00,07.00.00,21.00.00,08.00.00,20.00.00,America/New_York,TRUE,TRUE,TRUE,TRUE,TRUE,TRUE,FALSE,,,,,,,,,,,,,,,,,,,,,
191,Rockford Lowe's,"LOWE'S OF ROCKFORD, IL",7130 EAST STATE ROAD,7130 East State Rd,ROCKFORD,Rockford,IL,61108,(815) 394-1300,(815) 399-6384,(815) 721-8051,,42.27069874,-88.9779835,,N,,,US,06.00.00,22.00.00,06.00.00,22.00.00,06.00.00,22.00.00,06.00.00,22.00.00,06.00.00,22.00.00,06.00.00,22.00.00,08.00.00,20.00.00,America/Chicago,TRUE,TRUE,TRUE,TRUE,TRUE,TRUE,FALSE,,,,,,,,,,,,,,,,,,,,,
195,Michigan City Lowe's,"LOWE'S OF MICHIGAN CITY, IN",5200 FRANKLIN STREET,5200 Franklin St,MICHIGAN CITY,Michigan City,IN,46360,(219) 872-2900,(219) 872-6346,(219) 872-5666,,41.67271583,-86.8905762,,N,,,US,06.00.00,22.00.00,06.00.00,22.00.00,06.00.00,22.00.00,06.00.00,22.00.00,06.00.00,22.00.00,06.00.00,22.00.00,08.00.00,20.00.00,America/Chicago,TRUE,TRUE,TRUE,TRUE,TRUE,TRUE,FALSE,,,,,,,,,,,,,,,,,,,,,
197,Indiana Lowe's,"LOWE'S OF INDIANA, PA",475 BEN FRANKLIN ROAD SOUTH,475 Ben Franklin Rd South,INDIANA,Indiana,PA,15701,(724) 463-6600,(724) 463-9306,(724) 464-6021,,40.61472063,-79.189807,,N,,,US,07.00.00,21.00.00,07.00.00,21.00.00,07.00.00,21.00.00,07.00.00,21.00.00,07.00.00,21.00.00,07.00.00,21.00.00,08.00.00,19.00.00,America/New_York,TRUE,TRUE,TRUE,TRUE,TRUE,TRUE,FALSE,,,,,,,,,,,,,,,,,,,,,
199,Muskegon Lowe's,"LOWE'S OF MUSKEGON, MI",2035 EAST SHERMAN BLVD.,2035 East Sherman Blvd,MUSKEGON,Muskegon,MI,49444,(231) 739-1100,(231) 739-9510,(231) 672-9021,,43.20278647,-86.19444265,,N,,,US,06.00.00,22.00.00,06.00.00,22.00.00,06.00.00,22.00.00,06.00.00,22.00.00,06.00.00,22.00.00,06.00.00,22.00.00,08.00.00,20.00.00,America/New_York,TRUE,TRUE,TRUE,TRUE,TRUE,TRUE,FALSE,,,,,,,,,,,,,,,,,,,,,
200,Mishawaka Lowe's,"LOWE'S OF MISHAWAKA, IN",4660 NORTH GRAPE ROAD,4660 North Grape Rd,MISHAWAKA,Mishawaka,IN,46545,(574) 272-0900,(574) 272-2235,(574) 271-8441,,41.70276998,-86.18508313,,N,,,US,06.00.00,22.00.00,06.00.00,22.00.00,06.00.00,22.00.00,06.00.00,22.00.00,06.00.00,22.00.00,06.00.00,22.00.00,08.00.00,20.00.00,America/New_York,TRUE,TRUE,TRUE,TRUE,TRUE,TRUE,FALSE,,,,,,,,,,,,,,,,,,,,,
202,Vestal Lowe's,"LOWE'S OF VESTAL, NY",225 SYCAMORE ROAD,225 Sycamore Rd,VESTAL,Vestal,NY,13850,(607) 770-9800,(607) 770-6916,(607) 338-5030,,42.09856263,-76.00473132,,N,,,US,06.00.00,22.00.00,06.00.00,22.00.00,06.00.00,22.00.00,06.00.00,22.00.00,06.00.00,22.00.00,06.00.00,22.00.00,08.00.00,20.00.00,America/New_York,TRUE,TRUE,TRUE,TRUE,TRUE,TRUE,FALSE,,,,,,,,,,,,,,,,,,,,,
203,Dayton Mall Lowe's,"LOWE'S OF DAYTON MALL, OH",2900 MARTIN'S DRIVE,2900 Martin's Dr,WEST CARROLLTON,West Carrollton,OH,45449,(937) 438-4900,(937) 438-4914,(937) 242-4155,,39.64093911,-84.22258292,,N,,,US,06.00.00,22.00.00,06.00.00,22.00.00,06.00.00,22.00.00,06.00.00,22.00.00,06.00.00,22.00.00,06.00.00,22.00.00,08.00.00,20.00.00,America/New_York,TRUE,TRUE,TRUE,TRUE,TRUE,TRUE,FALSE,,,,,,,,,,,,,,,,,,,,,
205,Enid Lowe's,"LOWE'S OF ENID, OK",5201 WEST GARRIOTT,5201 West Garriott,ENID,Enid,OK,73703,(580) 242-3000,(580) 242-3015,(580) 242-3059,,36.38925926,-97.94231805,,N,,,US,07.00.00,21.00.00,07.00.00,21.00.00,07.00.00,21.00.00,07.00.00,21.00.00,07.00.00,21.00.00,07.00.00,21.00.00,08.00.00,20.00.00,America/Chicago,TRUE,TRUE,TRUE,TRUE,TRUE,TRUE,FALSE,,,,,,,,,,,,,,,,,,,,,
207,Wilmington Pike Lowe's,"LOWE'S OF WILMINGTON PIKE, OH",6300 WILMINGTON PIKE,6300 Wilmington Pike,CENTERVILLE,Centerville,OH,45459,(937) 848-5600,(937) 848-5614,(937) 310-4021,,39.64484865,-84.10835025,,N,http://images.lowes.com/general/n/NRdiamond.gif,,US,06.00.00,22.00.00,06.00.00,22.00.00,06.00.00,22.00.00,06.00.00,22.00.00,06.00.00,22.00.00,06.00.00,22.00.00,08.00.00,20.00.00,America/New_York,TRUE,TRUE,TRUE,TRUE,TRUE,TRUE,FALSE,,,,,,,,,,,,,,,,,,,,,
208,La Quinta Lowe's,"LOWE'S OF LA QUINTA, CA",78-865 HIGHWAY 111,78-865 Highway 111,LA QUINTA,La Quinta,CA,92253,(760) 771-5566,(760) 771-3311,(760) 771-4907,,33.71028147,-116.2916219,,N,,,US,06.00.00,22.00.00,06.00.00,22.00.00,06.00.00,22.00.00,06.00.00,22.00.00,06.00.00,22.00.00,06.00.00,22.00.00,07.00.00,20.00.00,America/Los_Angeles,TRUE,TRUE,TRUE,TRUE,TRUE,TRUE,FALSE,,,,,,,,,,,,,,,,,,,,,
209,Killeen Lowe's,"LOWE'S OF KILLEEN, TX",2801 SOUTH W.S. YOUNG DRIVE,2801 South W.S. Young Dr,KILLEEN,Killeen,TX,76542,(254) 526-8110,(254) 526-8689,(254) 415-6019,,31.08763031,-97.72187198,,N,,,US,06.00.00,21.00.00,06.00.00,21.00.00,06.00.00,21.00.00,06.00.00,21.00.00,06.00.00,21.00.00,06.00.00,21.00.00,08.00.00,21.00.00,America/Chicago,TRUE,TRUE,TRUE,TRUE,TRUE,TRUE,FALSE,,,,,,,,,,,,,,,,,,,,,
210,Zanesville Lowe's,"LOWE'S OF ZANESVILLE, OH",3755 FRAZEYSBURG ROAD,3755 Frazeysburg Rd,ZANESVILLE,Zanesville,OH,43701,(740) 450-5500,(740) 450-5330,(740) 617-3019,,39.99132184,-82.0285369,,N,,,US,07.00.00,21.00.00,07.00.00,21.00.00,07.00.00,21.00.00,07.00.00,21.00.00,07.00.00,21.00.00,07.00.00,21.00.00,08.00.00,19.00.00,America/New_York,TRUE,TRUE,TRUE,TRUE,TRUE,TRUE,FALSE,,,,,,,,,,,,,,,,,,,,,
211,Marion Lowe's,"LOWE'S OF MARION, IN",2842 SOUTH WESTERN AVENUE,2842 South Western Ave,MARION,Marion,IN,46953,(765) 668-4000,(765) 668-4844,(765) 293-3021,,40.53524019,-85.67626507,,N,,,US,06.30.00,21.00.00,06.30.00,21.00.00,06.30.00,21.00.00,06.30.00,21.00.00,06.30.00,21.00.00,06.30.00,21.00.00,08.00.00,20.00.00,America/New_York,TRUE,TRUE,TRUE,TRUE,TRUE,TRUE,FALSE,,,,,,,,,,,,,,,,,,,,,
212,Mobile Lowe's,"LOWE'S OF MOBILE, AL",151 EAST I-65 SERVICE ROAD SOUTH,151 East I-65 Service Rd South,MOBILE,Mobile,AL,36606,(251) 473-1880,(251) 478-1379,(251) 473-9908,,30.68157613,-88.12559824,,N,,,US,06.00.00,22.00.00,06.00.00,22.00.00,06.00.00,22.00.00,06.00.00,22.00.00,06.00.00,22.00.00,06.00.00,22.00.00,08.00.00,20.00.00,America/Chicago,TRUE,TRUE,TRUE,TRUE,TRUE,TRUE,FALSE,,,,,,,,,,,,,,,,,,,,,
215,Terre Haute Lowe's,"LOWE'S OF TERRE HAUTE, IN",4701 SOUTH U.S. HIGHWAY 41,4701 South U.S. Highway 41,TERRE HAUTE,Terre Haute,IN,47802,(812) 299-0202,(812) 299-3615,(812) 543-9040,,39.40805199,-87.41233949,,N,,,US,06.00.00,22.00.00,06.00.00,22.00.00,06.00.00,22.00.00,06.00.00,22.00.00,06.00.00,22.00.00,06.00.00,22.00.00,08.00.00,20.00.00,America/New_York,TRUE,TRUE,TRUE,TRUE,TRUE,TRUE,FALSE,,,,,,,,,,,,,,,,,,,,,
220,Louisville Lowe's,"LOWE'S OF LOUISVILLE, CO",1171 DILLON ROAD,1171 Dillon Rd,LOUISVILLE,Louisville,CO,80027,(303) 665-1335,(303) 665-5315,(303) 531-1087,,39.96339524,-105.1665412,,N,,,US,06.00.00,21.00.00,06.00.00,21.00.00,06.00.00,21.00.00,06.00.00,21.00.00,06.00.00,21.00.00,06.00.00,21.00.00,08.00.00,20.00.00,America/Denver,TRUE,TRUE,TRUE,TRUE,TRUE,TRUE,FALSE,,,,,,,,,,,,,,,,,,,,,
221,Temple Lowe's,"LOWE'S OF TEMPLE, TX",605 SW H. K. DODGEN LOOP,605 SW H.K. Dodgen Loop,TEMPLE,Temple,TX,76502,(254) 778-2090,(254) 778-0094,(254) 239-2021,,31.07011491,-97.36174134,,N,,,US,06.00.00,22.00.00,06.00.00,22.00.00,06.00.00,22.00.00,06.00.00,22.00.00,06.00.00,22.00.00,06.00.00,22.00.00,08.00.00,20.00.00,America/Chicago,TRUE,TRUE,TRUE,TRUE,TRUE,TRUE,FALSE,,,,,,,,,,,,,,,,,,,,,
222,Canton Lowe's,"LOWE'S OF CANTON, OH","6375 STRIP AVENUE, N.W.","6375 Strip Avenue, N.W.",NORTH CANTON,North Canton,OH,44720,(330) 497-2720,(330) 497-4058,(330) 492-0023,,40.87349778,-81.43464723,,N,,,US,06.00.00,22.00.00,06.00.00,22.00.00,06.00.00,22.00.00,06.00.00,22.00.00,06.00.00,22.00.00,06.00.00,22.00.00,08.00.00,20.00.00,America/New_York,TRUE,TRUE,TRUE,TRUE,TRUE,TRUE,FALSE,,,,,,,,,,,,,,,,,,,,,
223,Gaithersburg Lowe's,"LOWE'S OF GAITHERSBURG, MD",40 MARKET STREET,40 Market St,GAITHERSBURG,Gaithersburg,MD,20878,(301) 208-0400,(301) 208-6906,(301) 820-1061,,39.12496364,-77.23580103,,N,,,US,06.00.00,22.00.00,06.00.00,22.00.00,06.00.00,22.00.00,06.00.00,22.00.00,06.00.00,22.00.00,06.00.00,22.00.00,08.00.00,20.00.00,America/New_York,TRUE,TRUE,TRUE,TRUE,TRUE,TRUE,FALSE,,,,,,,,,,,,,,,,,,,,,
224,Elyria Lowe's,"LOWE'S OF ELYRIA, OH",646 MIDWAY BLVD,646 Midway Blvd,ELYRIA,Elyria,OH,44035,(440) 324-5004,(440) 324-4361,(440) 324-0719,,41.39761549,-82.11831717,,N,,,US,06.00.00,21.00.00,06.00.00,21.00.00,06.00.00,21.00.00,06.00.00,21.00.00,06.00.00,21.00.00,06.00.00,21.00.00,08.00.00,20.00.00,America/New_York,TRUE,TRUE,TRUE,TRUE,TRUE,TRUE,FALSE,,,,,,,,,,,,,,,,,,,,,
226,Erie Lowe's,"LOWE'S OF ERIE, PA",1930 KEYSTONE DR. SUITE 2,1930 Keystone Dr Suite 2,ERIE,Erie,PA,16509,(814) 864-2800,(814) 866-1470,(814) 217-5331,,42.05754118,-80.08596557,,N,,,US,06.00.00,22.00.00,06.00.00,22.00.00,06.00.00,22.00.00,06.00.00,22.00.00,06.00.00,22.00.00,06.00.00,22.00.00,08.00.00,20.00.00,America/New_York,TRUE,TRUE,TRUE,TRUE,TRUE,TRUE,FALSE,,,,,,,,,,,,,,,,,,,,,
231,Defiance Lowe's,"LOWE'S OF DEFIANCE, OH",1831 NORTH CLINTON STREET,1831 North Clinton St,DEFIANCE,Defiance,OH,43512,(419) 782-9000,(419) 782-1838,(419) 783-9419,,41.30656891,-84.35740861,,N,,,US,07.00.00,21.00.00,07.00.00,21.00.00,07.00.00,21.00.00,07.00.00,21.00.00,07.00.00,21.00.00,07.00.00,21.00.00,08.00.00,20.00.00,America/New_York,TRUE,TRUE,TRUE,TRUE,TRUE,TRUE,FALSE,,,,,,,,,,,,,,,,,,,,,
232,Conroe Lowe's,"LOWE'S OF CONROE, TX",1920 WESTVIEW BLVD.,1920 Westview Blvd,CONROE,Conroe,TX,77304,(936) 760-1500,(936) 760-1865,(936) 442-5119,,30.32747696,-95.48026354,,N,,,US,06.00.00,22.00.00,06.00.00,22.00.00,06.00.00,22.00.00,06.00.00,22.00.00,06.00.00,22.00.00,06.00.00,22.00.00,08.00.00,20.00.00,America/Chicago,TRUE,TRUE,TRUE,TRUE,TRUE,TRUE,FALSE,,,,,,,,,,,,,,,,,,,,,
235,Russellville Lowe's,"LOWE'S OF RUSSELLVILLE, AR",3011 PARKWAY EAST,3011 Pkwy East,RUSSELLVILLE,Russellville,AR,72802,(479) 890-3018,(479) 967-4306,(479) 890-7353,,35.28333773,-93.0967059,,N,,,US,07.00.00,21.00.00,07.00.00,21.00.00,07.00.00,21.00.00,07.00.00,21.00.00,07.00.00,21.00.00,07.00.00,21.00.00,08.00.00,19.00.00,America/Chicago,TRUE,TRUE,TRUE,TRUE,TRUE,TRUE,FALSE,,,,,,,,,,,,,,,,,,,,,
236,Conway Lowe's,"LOWE'S OF CONWAY, AR",1325 HIGHWAY 64 WEST,1325 Highway 64 West,CONWAY,Conway,AR,72032,(501) 513-3300,(501) 513-0602,(501) 339-2021,,35.1094764,-92.44316034,,N,,,US,06.00.00,22.00.00,06.00.00,22.00.00,06.00.00,22.00.00,06.00.00,22.00.00,06.00.00,22.00.00,06.00.00,22.00.00,08.00.00,20.00.00,America/Chicago,TRUE,TRUE,TRUE,TRUE,TRUE,TRUE,FALSE,,,,,,,,,,,,,,,,,,,,,
240,Vero Beach Lowe's,"LOWE'S OF VERO BEACH, FL",6110 20TH STREET,6110 20th St,VERO BEACH,Vero Beach,FL,32966,(772) 564-6955,(772) 564-6930,(772) 564-6939,,27.64081575,-80.45173762,,N,,,US,06.00.00,21.00.00,06.00.00,21.00.00,06.00.00,21.00.00,06.00.00,21.00.00,06.00.00,21.00.00,07.00.00,21.00.00,08.00.00,20.00.00,America/New_York,TRUE,TRUE,TRUE,TRUE,TRUE,TRUE,FALSE,,,,,,,,,,,,,,,,,,,,,
241,Stillwater Lowe's,"LOWE'S OF STILLWATER, OK",1616 NORTH PERKINS ROAD,1616 North Perkins Rd,STILLWATER,Stillwater,OK,74075,(405) 377-3000,(405) 377-4206,(405) 564-2021,,36.13899848,-97.05312249,,N,,,US,07.00.00,21.00.00,07.00.00,21.00.00,07.00.00,21.00.00,07.00.00,21.00.00,07.00.00,21.00.00,07.00.00,21.00.00,08.00.00,20.00.00,America/Chicago,TRUE,TRUE,TRUE,TRUE,TRUE,TRUE,FALSE,,,,,,,,,,,,,,,,,,,,,
242,Scranton Lowe's,"LOWE'S OF SCRANTON, PA",901 VIEWMONT DRIVE,901 Viewmont Dr,DICKSON CITY,Dickson City,PA,18519,(570) 344-9200,(570) 341-1089,(570) 906-2522,,41.45345151,-75.6427583,,N,,,US,06.00.00,22.00.00,06.00.00,22.00.00,06.00.00,22.00.00,06.00.00,22.00.00,06.00.00,22.00.00,06.00.00,22.00.00,08.00.00,20.00.00,America/New_York,TRUE,TRUE,TRUE,TRUE,TRUE,TRUE,FALSE,,,,,,,,,,,,,,,,,,,,,
243,S. Tulsa Lowe's,"LOWE'S OF S. TULSA, OK","10156 EAST 71ST STREET, SOUTH","10156 East 71st Street, South",TULSA,Tulsa,OK,74133,(918) 459-9922,(918) 459-9420,(918) 615-1509,,36.05907649,-95.86283241,,N,,,US,06.00.00,22.00.00,06.00.00,22.00.00,06.00.00,22.00.00,06.00.00,22.00.00,06.00.00,22.00.00,06.00.00,22.00.00,08.00.00,20.00.00,America/Chicago,TRUE,TRUE,TRUE,TRUE,TRUE,TRUE,FALSE,,,,,,,,,,,,,,,,,,,,,
244,Trumbull County Lowe's,"LOWE'S OF TRUMBULL COUNTY, OH",940 NILES CORTLAND ROAD,940 Niles Cortland Rd,WARREN,Warren,OH,44484,(330) 609-8000,(330) 609-8537,(330) 856-8385,,41.2280743,-80.74238909,,N,,,US,06.00.00,22.00.00,06.00.00,22.00.00,06.00.00,22.00.00,06.00.00,22.00.00,06.00.00,22.00.00,06.00.00,22.00.00,08.00.00,20.00.00,America/New_York,TRUE,TRUE,TRUE,TRUE,TRUE,TRUE,FALSE,,,,,,,,,,,,,,,,,,,,,
245,Decatur Lowe's,"LOWE'S OF DECATUR, IL",990 HICKORY POINT PLAZA,990 Hickory Pt Plaza,FORSYTH,Forsyth,IL,62535,(217) 876-9750,(217) 876-1450,(217) 706-9160,,39.92113073,-88.95272732,,N,,,US,06.00.00,21.00.00,06.00.00,21.00.00,06.00.00,21.00.00,06.00.00,21.00.00,06.00.00,21.00.00,06.00.00,21.00.00,08.00.00,20.00.00,America/Chicago,TRUE,TRUE,TRUE,TRUE,TRUE,TRUE,FALSE,,,,,,,,,,,,,,,,,,,,,
246,Northglenn Lowe's,"LOWE'S OF NORTHGLENN, CO",261 WEST 104TH AVENUE,261 West 104th Ave,NORTHGLENN,Northglenn,CO,80234,(303) 280-1166,(303) 280-4991,(303) 280-4991,,39.88938497,-104.9892988,,N,,,US,06.00.00,21.00.00,06.00.00,21.00.00,06.00.00,21.00.00,06.00.00,21.00.00,06.00.00,21.00.00,06.00.00,21.00.00,08.00.00,20.00.00,America/Denver,TRUE,TRUE,TRUE,TRUE,TRUE,TRUE,FALSE,,,,,,,,,,,,,,,,,,,,,
247,N. Richmond Lowe's,"LOWE'S OF N. RICHMOND, VA",8001 BROOK ROAD,8001 Brook Rd,RICHMOND,Richmond,VA,23227,(804) 261-4501,(804) 261-4527,(804) 727-1169,,37.63317226,-77.45380789,,N,,,US,06.00.00,22.00.00,06.00.00,22.00.00,06.00.00,22.00.00,06.00.00,22.00.00,06.00.00,22.00.00,06.00.00,22.00.00,08.00.00,20.00.00,America/New_York,TRUE,TRUE,TRUE,TRUE,TRUE,TRUE,FALSE,,,,,,,,,,,,,,,,,,,,,
248,Medford Lowe's,"LOWE'S OF MEDFORD, OR",3601 CRATER LAKE HIGHWAY,3601 Crater Lake Highway,MEDFORD,Medford,OR,97504,(541) 776-8421,(541) 858-5336,(541) 770-9858,,42.36506219,-122.8588505,,N,,,US,06.00.00,22.00.00,06.00.00,22.00.00,06.00.00,22.00.00,06.00.00,22.00.00,06.00.00,22.00.00,06.00.00,22.00.00,08.00.00,21.00.00,America/Los_Angeles,TRUE,TRUE,TRUE,TRUE,TRUE,TRUE,FALSE,,,,,,,,,,,,,,,,,,,,,
249,Kennewick Lowe's,"LOWE'S OF KENNEWICK, WA",N. 1020 COLORADO STREET,N. 1020 Colorado St,KENNEWICK,Kennewick,WA,99336,(509) 736-1451,(509) 783-6630,(509) 736-0556,,46.21979711,-119.2219214,,N,,,US,06.00.00,22.00.00,06.00.00,22.00.00,06.00.00,22.00.00,06.00.00,22.00.00,06.00.00,22.00.00,06.00.00,22.00.00,08.00.00,20.00.00,America/Los_Angeles,TRUE,TRUE,TRUE,TRUE,TRUE,TRUE,FALSE,,,,,,,,,,,,,,,,,,,,,
250,Torrance Lowe's,"LOWE'S OF TORRANCE, CA",22255 WESTERN AVENUE,22255 Western Ave,TORRANCE,Torrance,CA,90501,(310) 787-1469,(310) 381-2945,(310) 619-2651,,33.82578327,-118.3102837,,N,,,US,06.00.00,22.00.00,06.00.00,22.00.00,06.00.00,22.00.00,06.00.00,22.00.00,06.00.00,22.00.00,06.00.00,22.00.00,07.00.00,21.00.00,America/Los_Angeles,TRUE,TRUE,TRUE,TRUE,TRUE,TRUE,FALSE,,,,,,,,,,,,,,,,,,,,,
252,N. Seattle Lowe's,"LOWE'S OF N. SEATTLE, WA",12525 AURORA AVENUE NORTH,12525 Aurora Ave North,SEATTLE,Seattle,WA,98133,(206) 366-0365,(206) 366-1218,(206) 366-1102,,47.72080184,-122.3468042,,N,,,US,06.00.00,22.00.00,06.00.00,22.00.00,06.00.00,22.00.00,06.00.00,22.00.00,06.00.00,22.00.00,06.00.00,22.00.00,08.00.00,21.00.00,America/Los_Angeles,TRUE,TRUE,TRUE,TRUE,TRUE,TRUE,FALSE,,,,,,,,,,,,,,,,,,,,,
255,Lima Lowe's,"LOWE'S OF LIMA, OH",2411 NORTH EASTOWN ROAD,2411 North Eastown Rd,LIMA,Lima,OH,45807,(419) 331-3598,(419) 331-6724,(419) 221-4811,,40.77268046,-84.16676627,,N,,,US,07.00.00,21.00.00,07.00.00,21.00.00,07.00.00,21.00.00,07.00.00,21.00.00,07.00.00,21.00.00,07.00.00,21.00.00,08.00.00,20.00.00,America/New_York,TRUE,TRUE,TRUE,TRUE,TRUE,TRUE,FALSE,,,,,,,,,,,,,,,,,,,,,
258,Springfield Lowe's,"LOWE'S OF SPRINGFIELD, IL",3101 WEST WABASH,3101 West Wabash,SPRINGFIELD,Springfield,IL,62704,(217) 787-2300,(217) 793-7277,(217) 331-5311,,39.76251585,-89.71399952,,N,,,US,06.00.00,22.00.00,06.00.00,22.00.00,06.00.00,22.00.00,06.00.00,22.00.00,06.00.00,22.00.00,06.00.00,22.00.00,08.00.00,20.00.00,America/Chicago,TRUE,TRUE,TRUE,TRUE,TRUE,TRUE,FALSE,,,,,,,,,,,,,,,,,,,,,
264,Ontario Lowe's,"LOWE'S OF ONTARIO, OH",940 N LEXINGTON SPRING MILL RD,940 N Lexington Spring Mill Rd,MANSFIELD,Mansfield,OH,44906,(419) 747-1920,(419)747-1940,(419) 747-8279,,40.77812721,-82.58867921,,N,,,US,06.00.00,22.00.00,06.00.00,22.00.00,06.00.00,22.00.00,06.00.00,22.00.00,06.00.00,22.00.00,06.00.00,22.00.00,08.00.00,20.00.00,America/New_York,TRUE,TRUE,TRUE,TRUE,TRUE,TRUE,FALSE,,,,,,,,,,,,,,,,,,,,,
265,N.E. Columbus Lowe's,"LOWE'S OF N.E. COLUMBUS, OH",4141 MORSE CROSSING,4141 Morse Crossing,COLUMBUS,Columbus,OH,43219,(614) 476-7100,(614) 476-7138,(614) 383-0019,,40.05512934,-82.92130915,,N,http://images.lowes.com/general/n/NRdiamond.gif,,US,07.00.00,21.00.00,07.00.00,21.00.00,07.00.00,21.00.00,07.00.00,21.00.00,07.00.00,21.00.00,07.00.00,21.00.00,08.00.00,20.00.00,America/New_York,TRUE,TRUE,TRUE,TRUE,TRUE,TRUE,FALSE,,,,,,,,,,,,,,,,,,,,,
268,S. Oklahoma City Lowe's,"LOWE'S OF S. OKLAHOMA CITY, OK",100 SW 74TH STREET,100 SW 74th St,OKLAHOMA CITY,Oklahoma City,OK,73139,(405) 632-3535,(405) 636-8142,(405) 246-2088,,35.38949643,-97.51389535,,N,,,US,06.00.00,22.00.00,06.00.00,22.00.00,06.00.00,22.00.00,06.00.00,22.00.00,06.00.00,22.00.00,06.00.00,22.00.00,08.00.00,20.00.00,America/Chicago,TRUE,TRUE,TRUE,TRUE,TRUE,TRUE,FALSE,,,,,,,,,,,,,,,,,,,,,
269,New Philadelphia Lowe's,"LOWE'S OF NEW PHILADELPHIA, OH",495  MILL ROAD,495 Mill Rd,NEW PHILADELPHIA,New Philadelphia,OH,44663,(330) 339-1936,(330) 339-4682,(330) 308-3069,,40.47613371,-81.43889844,,N,,,US,07.00.00,21.00.00,07.00.00,21.00.00,07.00.00,21.00.00,07.00.00,21.00.00,07.00.00,21.00.00,07.00.00,21.00.00,08.00.00,20.00.00,America/New_York,TRUE,TRUE,TRUE,TRUE,TRUE,TRUE,FALSE,,,,,,,,,,,,,,,,,,,,,
270,Amarillo Lowe's,"LOWE'S OF AMARILLO, TX",5000 SOUTH COULTER STREET,5000 South Coulter St,AMARILLO,Amarillo,TX,79119,(806) 353-2003,(806) 353-7469,(806) 382-1072,,35.15734046,-101.9230724,,N,,,US,06.00.00,22.00.00,06.00.00,22.00.00,06.00.00,22.00.00,06.00.00,22.00.00,06.00.00,22.00.00,06.00.00,22.00.00,08.00.00,20.00.00,America/Chicago,TRUE,TRUE,TRUE,TRUE,TRUE,TRUE,FALSE,,,,,,,,,,,,,,,,,,,,,
271,Lubbock Lowe's,"LOWE'S OF LUBBOCK, TX",5022 WEST LOOP 289,5022 West Loop 289,LUBBOCK,Lubbock,TX,79424,(806) 791-3000,(806) 780-8265,(806) 392-9020,,33.54624333,-101.9384191,,N,,,US,06.00.00,22.00.00,06.00.00,22.00.00,06.00.00,22.00.00,06.00.00,22.00.00,06.00.00,22.00.00,06.00.00,22.00.00,08.00.00,20.00.00,America/Chicago,TRUE,TRUE,TRUE,TRUE,TRUE,TRUE,FALSE,,,,,,,,,,,,,,,,,,,,,
272,E. Indianapolis Lowe's,"LOWE'S OF E. INDIANAPOLIS, IN",8801 EAST 25TH STREET,8801 East 25th St,INDIANAPOLIS,Indianapolis,IN,46219,(317) 895-8400,(317) 895-0004,(317) 405-1059,,39.80277785,-86.01307708,,N,http://images.lowes.com/general/n/NRdiamond.gif,,US,06.00.00,22.00.00,06.00.00,22.00.00,06.00.00,22.00.00,06.00.00,22.00.00,06.00.00,22.00.00,06.00.00,22.00.00,08.00.00,20.00.00,America/New_York,TRUE,TRUE,TRUE,TRUE,TRUE,TRUE,FALSE,,,,,,,,,,,,,,,,,,,,,
275,W. Indianapolis Lowe's,"LOWE'S OF W. INDIANAPOLIS, IN",975 BEACHWAY DRIVE,975 Beachway Dr,INDIANAPOLIS,Indianapolis,IN,46224,(317) 484-1600,(317) 484-2475,(317) 405-0018,,39.77756457,-86.26639953,,N,http://images.lowes.com/general/n/NRdiamond.gif,,US,06.00.00,22.00.00,06.00.00,22.00.00,06.00.00,22.00.00,06.00.00,22.00.00,06.00.00,22.00.00,06.00.00,22.00.00,08.00.00,20.00.00,America/New_York,TRUE,TRUE,TRUE,TRUE,TRUE,TRUE,FALSE,,,,,,,,,,,,,,,,,,,,,
278,Joplin Lowe's,"LOWE'S OF JOPLIN, MO",2600 RANGE LINE ROAD,2600 Range Line Rd,JOPLIN,Joplin,MO,64804,(417) 782-1940,(417) 782-0444,(417) 623-8173,,37.06158281,-94.47991552,,N,,,US,06.00.00,22.00.00,06.00.00,22.00.00,06.00.00,22.00.00,06.00.00,22.00.00,06.00.00,22.00.00,06.00.00,22.00.00,08.00.00,20.00.00,America/Chicago,TRUE,TRUE,TRUE,TRUE,TRUE,TRUE,FALSE,,,,,,,,,,,,,,,,,,,,,
279,Reading Lowe's,"LOWE'S OF READING, PA",500 MADISON AVENUE,500 Madison Ave,READING,Reading,PA,19605,(610) 939-0100,(610) 939-0118,(610) 939-0112,,40.37322507,-75.92833078,,N,,,US,06.00.00,22.00.00,06.00.00,22.00.00,06.00.00,22.00.00,06.00.00,22.00.00,06.00.00,22.00.00,06.00.00,22.00.00,08.00.00,19.00.00,America/New_York,TRUE,TRUE,TRUE,TRUE,TRUE,TRUE,FALSE,,,,,,,,,,,,,,,,,,,,,
281,Enterprise Lowe's,"LOWE'S OF ENTERPRISE, AL",1301 BOLL WEEVIL CIRCLE,1301 Boll Weevil Cir,ENTERPRISE,Enterprise,AL,36330,(334) 393-5200,(334) 308-2933,(334) 348-5019,,31.33253078,-85.86088737,,N,,,US,06.00.00,21.00.00,06.00.00,21.00.00,06.00.00,21.00.00,06.00.00,21.00.00,06.00.00,21.00.00,06.00.00,21.00.00,08.00.00,20.00.00,America/Chicago,TRUE,TRUE,TRUE,TRUE,TRUE,TRUE,FALSE,,,,,,,,,,,,,,,,,,,,,
282,Victoria Lowe's,"LOWE'S OF VICTORIA, TX",8602 NORTH NAVARRO STREET,8602 North Navarro St,VICTORIA,Victoria,TX,77904,(361) 573-7700,(361) 573-9495,(361) 237-2051,,28.8737991,-96.99636424,,N,,,US,06.00.00,22.00.00,06.00.00,22.00.00,06.00.00,22.00.00,06.00.00,22.00.00,06.00.00,22.00.00,06.00.00,22.00.00,08.00.00,20.00.00,America/Chicago,TRUE,TRUE,TRUE,TRUE,TRUE,TRUE,FALSE,,,,,,,,,,,,,,,,,,,,,
285,Lynnwood Lowe's,"LOWE'S OF LYNNWOOD, WA",3100 196TH S.W.,3100 196th S.W.,LYNNWOOD,Lynnwood,WA,98036,(425) 744-8411,(425) 744-8415,(425) 582-4218,,47.81984302,-122.2763899,,N,,,US,06.00.00,22.00.00,06.00.00,22.00.00,06.00.00,22.00.00,06.00.00,22.00.00,06.00.00,22.00.00,06.00.00,22.00.00,08.00.00,21.00.00,America/Los_Angeles,TRUE,TRUE,TRUE,TRUE,TRUE,TRUE,FALSE,,,,,,,,,,,,,,,,,,,,,
288,N.E. Indianapolis Lowe's,"LOWE'S OF N.E. INDIANAPOLIS, IN",8002 NORTH SHADELAND AVE.,8002 North Shadeland Ave.,INDIANAPOLIS,Indianapolis,IN,46250,(317) 578-2200,(317) 578-2647,(317) 712-2060,,39.90042432,-86.04771309,,N,,,US,06.00.00,22.00.00,06.00.00,22.00.00,06.00.00,22.00.00,06.00.00,22.00.00,06.00.00,22.00.00,06.00.00,22.00.00,08.00.00,20.00.00,America/New_York,TRUE,TRUE,TRUE,TRUE,TRUE,TRUE,FALSE,,,,,,,,,,,,,,,,,,,,,
289,Anchorage Lowe's,"LOWE'S OF ANCHORAGE, AK",333 EAST TUDOR ROAD,333 East Tudor Rd,ANCHORAGE,Anchorage,AK,99503,(907) 563-0391,(907) 563-9078,(907) 550-6818,,61.18156729,-149.8788346,,N,,,US,06.00.00,22.00.00,06.00.00,22.00.00,06.00.00,22.00.00,06.00.00,22.00.00,06.00.00,22.00.00,06.00.00,22.00.00,07.00.00,21.00.00,America/Anchorage,TRUE,TRUE,TRUE,TRUE,TRUE,TRUE,FALSE,,,,,,,,,,,,,,,,,,,,,
292,Hazleton Lowe's,"LOWE'S OF HAZLETON, PA",200 WEIS LANE,200 Weis Ln,WEST HAZLETON,West Hazleton,PA,18202,(570) 450-6801,(570) 450-6802,(570) 497-2020,,40.96586536,-76.00660645,,N,,,US,07.00.00,21.00.00,07.00.00,21.00.00,07.00.00,21.00.00,07.00.00,21.00.00,07.00.00,21.00.00,07.00.00,21.00.00,08.00.00,19.00.00,America/New_York,TRUE,TRUE,TRUE,TRUE,TRUE,TRUE,FALSE,,,,,,,,,,,,,,,,,,,,,
297,Alliance Lowe's,"LOWE'S OF ALLIANCE, OH",2595 WEST STATE STREET,2595 West State St,ALLIANCE,Alliance,OH,44601,(330) 829-2700,(330) 829-2719,(330) 829-1541,,40.90314713,-81.15714274,,N,,,US,07.00.00,21.00.00,07.00.00,21.00.00,07.00.00,21.00.00,07.00.00,21.00.00,07.00.00,21.00.00,07.00.00,21.00.00,08.00.00,20.00.00,America/New_York,TRUE,TRUE,TRUE,TRUE,TRUE,TRUE,FALSE,,,,,,,,,,,,,,,,,,,,,
298,Wilmington Lowe's,"LOWE'S OF WILMINGTON, OH",1175 ROMBACH AVENUE,1175 Rombach Ave,WILMINGTON,Wilmington,OH,45177,(937) 383-7000,(937) 383-4135,(937) 655-5079,,39.44988413,-83.8093668,,N,,,US,07.00.00,21.00.00,07.00.00,21.00.00,07.00.00,21.00.00,07.00.00,21.00.00,07.00.00,21.00.00,07.00.00,21.00.00,08.00.00,19.00.00,America/New_York,TRUE,TRUE,TRUE,TRUE,TRUE,TRUE,FALSE,,,,,,,,,,,,,,,,,,,,,
303,Middletown Lowe's,"LOWE'S OF MIDDLETOWN, OH",3125 TOWNE BOULEVARD,3125 Towne Blvd,MIDDLETOWN,Middletown,OH,45044,(513) 727-3900,(513) 727-3918,(513) 804-9161,,39.49044192,-84.33174587,,N,http://images.lowes.com/general/n/NRdiamond.gif,,US,06.00.00,22.00.00,06.00.00,22.00.00,06.00.00,22.00.00,06.00.00,22.00.00,06.00.00,22.00.00,06.00.00,22.00.00,08.00.00,20.00.00,America/New_York,TRUE,TRUE,TRUE,TRUE,TRUE,TRUE,FALSE,,,,,,,,,,,,,,,,,,,,,
305,ST. Joseph Lowe's,"LOWE'S OF ST. JOSEPH, MO",3901 N. BELT HIGHWAY,3901 N. Belt Highway,SAINT JOSEPH,Saint Joseph,MO,64506,(816) 364-4880,(816) 364-4682,(816) 364-4662,,39.80572125,-94.81257903,,N,,,US,07.00.00,22.00.00,07.00.00,22.00.00,07.00.00,22.00.00,07.00.00,22.00.00,07.00.00,22.00.00,07.00.00,22.00.00,08.00.00,20.00.00,America/Chicago,TRUE,TRUE,TRUE,TRUE,TRUE,TRUE,FALSE,,,,,,,,,,,,,,,,,,,,,
311,Greenwood Village Lowe's,"LOWE'S OF GREENWOOD VILLAGE, CO",9100 EAST PEAKVIEW AVENUE,9100 East Peakview Ave,GREENWOOD VILLAGE,Greenwood Village,CO,80111,(303) 220-8737,(303) 220-8562,(303) 928-1666,,39.59744703,-104.8840926,,N,,,US,06.00.00,22.00.00,06.00.00,22.00.00,06.00.00,22.00.00,06.00.00,22.00.00,06.00.00,22.00.00,06.00.00,22.00.00,08.00.00,20.00.00,America/Denver,TRUE,TRUE,TRUE,TRUE,TRUE,TRUE,FALSE,,,,,,,,,,,,,,,,,,,,,
313,Cullman Lowe's,"LOWE'S OF CULLMAN, AL","1717 CHEROKEE AVENUE, SW","1717 Cherokee Avenue, Sw",CULLMAN,Cullman,AL,35055,(256) 775-0075,(256) 775-0279,(256) 620-9019,,34.15672045,-86.84018484,,N,,,US,07.00.00,21.00.00,07.00.00,21.00.00,07.00.00,21.00.00,07.00.00,21.00.00,07.00.00,21.00.00,07.00.00,21.00.00,08.00.00,19.00.00,America/Chicago,TRUE,TRUE,TRUE,TRUE,TRUE,TRUE,FALSE,,,,,,,,,,,,,,,,,,,,,
316,Chino Hills Lowe's,"LOWE'S OF CHINO HILLS, CA",13251 PEYTON DRIVE,13251 Peyton Dr,CHINO HILLS,Chino Hills,CA,91709,(909) 627-6039,(909) 627-5576,(909) 438-4021,,34.01354458,-117.7409545,,N,,,US,06.00.00,22.00.00,06.00.00,22.00.00,06.00.00,22.00.00,06.00.00,22.00.00,06.00.00,22.00.00,06.00.00,22.00.00,07.00.00,20.00.00,America/Los_Angeles,TRUE,TRUE,TRUE,TRUE,TRUE,TRUE,FALSE,,,,,,,,,,,,,,,,,,,,,
317,Cape Girardeau Lowe's,"LOWE'S OF CAPE GIRARDEAU, MO",3440 LOWES DRIVE,3440 Lowes Dr,CAPE GIRARDEAU,Cape Girardeau,MO,63701,(573) 335-6500,(573) 335-3138,(573) 335-1435,,37.29629731,-89.58300518,,N,,,US,07.00.00,21.00.00,07.00.00,21.00.00,07.00.00,21.00.00,07.00.00,21.00.00,07.00.00,21.00.00,07.00.00,21.00.00,08.00.00,20.00.00,America/Chicago,TRUE,TRUE,TRUE,TRUE,TRUE,TRUE,FALSE,,,,,,,,,,,,,,,,,,,,,
318,Pueblo Lowe's,"LOWE'S OF PUEBLO, CO",1225 HIGHWAY 50 WEST,1225 Highway 50 West,PUEBLO,Pueblo,CO,81008,(719) 543-3339,(719) 543-2387,(719) 289-9028,,38.30977004,-104.623438,,N,,,US,06.00.00,22.00.00,06.00.00,22.00.00,06.00.00,22.00.00,06.00.00,22.00.00,06.00.00,22.00.00,06.00.00,22.00.00,08.00.00,20.00.00,America/Denver,TRUE,TRUE,TRUE,TRUE,TRUE,TRUE,FALSE,,,,,,,,,,,,,,,,,,,,,
319,Billings Lowe's,"LOWE'S OF BILLINGS, MT",2717 KING AVENUE WEST,2717 King Ave West,BILLINGS,Billings,MT,59102,(406) 655-9317,(406) 655-0096,(406) 651-1059,,45.75765932,-108.5822106,,N,,,US,06.00.00,22.00.00,06.00.00,22.00.00,06.00.00,22.00.00,06.00.00,22.00.00,06.00.00,22.00.00,06.00.00,22.00.00,08.00.00,20.00.00,America/Denver,TRUE,TRUE,TRUE,TRUE,TRUE,TRUE,FALSE,,,,,,,,,,,,,,,,,,,,,
321,Reno Lowe's,"LOWE'S OF RENO, NV",5075 KIETZKE LANE,5075 Kietzke Ln,RENO,Reno,NV,89511,(775) 824-4750,(775) 824-4763,(775) 412-4059,,39.47479948,-119.7946039,,N,,,US,06.00.00,22.00.00,06.00.00,22.00.00,06.00.00,22.00.00,06.00.00,22.00.00,06.00.00,22.00.00,06.00.00,22.00.00,07.00.00,20.00.00,America/Los_Angeles,TRUE,TRUE,TRUE,TRUE,TRUE,TRUE,FALSE,,,,,,,,,,,,,,,,,,,,,
330,Holland Lowe's,"LOWE'S OF HOLLAND, MI","12635 FELCH ST., SUITE 10","12635 Felch St, Suite 10",HOLLAND,Holland,MI,49424,(616) 738-2500,(616) 738-2516,(616) 834-9021,,42.82034378,-86.09388265,,N,,,US,06.00.00,22.00.00,06.00.00,22.00.00,06.00.00,22.00.00,06.00.00,22.00.00,06.00.00,22.00.00,06.00.00,22.00.00,08.00.00,20.00.00,America/New_York,TRUE,TRUE,TRUE,TRUE,TRUE,TRUE,FALSE,,,,,,,,,,,,,,,,,,,,,
340,Arvada Lowe's,"LOWE'S OF ARVADA, CO",5405 WADSWORTH BYPASS,5405 Wadsworth Bypass,ARVADA,Arvada,CO,80002,(303) 425-3323,(303) 425-7139,(303) 495-1840,,39.7951512,-105.0807192,,N,,,US,06.00.00,22.00.00,06.00.00,22.00.00,06.00.00,22.00.00,06.00.00,22.00.00,06.00.00,22.00.00,06.00.00,22.00.00,08.00.00,20.00.00,America/Denver,TRUE,TRUE,TRUE,TRUE,TRUE,TRUE,FALSE,,,,,,,,,,,,,,,,,,,,,
342,Murray Lowe's,"LOWE'S OF MURRAY, UT",469 WEST 4500 SOUTH,469 West 4500 South,MURRAY,Murray,UT,84123,(801) 263-3441,(801) 281-3019,(801) 590-5230,,40.67347078,-111.9046159,,N,,,US,06.00.00,22.00.00,06.00.00,22.00.00,06.00.00,22.00.00,06.00.00,22.00.00,06.00.00,22.00.00,06.00.00,22.00.00,08.00.00,20.00.00,America/Denver,TRUE,TRUE,TRUE,TRUE,TRUE,TRUE,FALSE,,,,,,,,,,,,,,,,,,,,,
351,Bartlesville Lowe's,"LOWE'S OF BARTLESVILLE, OK",2205 S. E. ADAMS BLVD.,2205 SE Adams Blvd.,BARTLESVILLE,Bartlesville,OK,74006,(918) 331-2000,(918) 331-2026,(918) 213-2023,,36.74136606,-95.95180315,,N,,,US,07.00.00,21.00.00,07.00.00,21.00.00,07.00.00,21.00.00,07.00.00,21.00.00,07.00.00,21.00.00,07.00.00,21.00.00,09.00.00,20.00.00,America/Chicago,TRUE,TRUE,TRUE,TRUE,TRUE,TRUE,FALSE,,,,,,,,,,,,,,,,,,,,,
356,Montoursville Lowe's,"LOWE'S OF MONTOURSVILLE, PA",701 LOYALSOCK AVENUE,701 Loyalsock Ave,MONTOURSVILLE,Montoursville,PA,17754,(570) 368-6300,(570) 368-6318,(570) 368-6311,,41.25964932,-76.92079228,,N,,,US,07.00.00,21.00.00,07.00.00,21.00.00,07.00.00,21.00.00,07.00.00,21.00.00,07.00.00,21.00.00,07.00.00,21.00.00,08.00.00,19.00.00,America/New_York,TRUE,TRUE,TRUE,TRUE,TRUE,TRUE,FALSE,,,,,,,,,,,,,,,,,,,,,
357,Kokomo Lowe's,"LOWE'S OF KOKOMO, IN",4005 SOUTH LAFOUNTAIN,4005 South Lafountain,KOKOMO,Kokomo,IN,46902,(765) 453-1000,(765) 453-4872,(765) 252-5021,,40.43965438,-86.12894234,,N,,,US,06.00.00,22.00.00,06.00.00,22.00.00,06.00.00,22.00.00,06.00.00,22.00.00,06.00.00,22.00.00,06.00.00,22.00.00,08.00.00,20.00.00,America/New_York,TRUE,TRUE,TRUE,TRUE,TRUE,TRUE,FALSE,,,,,,,,,,,,,,,,,,,,,
358,Summerville Lowe's,"LOWE'S OF SUMMERVILLE, SC",1207 NORTH MAIN STREET,1207 North Main St,SUMMERVILLE,Summerville,SC,29483,(843) 851-0066,(843) 851-4337,(843) 486-4021,,33.03318283,-80.15854421,,N,,,US,06.00.00,22.00.00,06.00.00,22.00.00,06.00.00,22.00.00,06.00.00,22.00.00,06.00.00,22.00.00,06.00.00,22.00.00,08.00.00,20.00.00,America/New_York,TRUE,TRUE,TRUE,TRUE,TRUE,TRUE,FALSE,,,,,,,,,,,,,,,,,,,,,
377,Pineville Lowe's,"LOWE'S OF PINEVILLE, NC",10625 MCMULLEN CREEK PKWY,10625 Mcmullen Creek Pkwy,CHARLOTTE,Charlotte,NC,28226,(704) 543-5600,(704) 341-7652,(704) 501-5388,,35.09062393,-80.85619319,,N,http://images.lowes.com/general/n/NRdiamond.gif,,US,06.00.00,22.00.00,06.00.00,22.00.00,06.00.00,22.00.00,06.00.00,22.00.00,06.00.00,22.00.00,06.00.00,22.00.00,08.00.00,20.00.00,America/New_York,TRUE,TRUE,TRUE,TRUE,TRUE,TRUE,TRUE,,,,,,,,,,,,,,,,,,,,,
381,W. Richmond Lowe's,"LOWE'S OF W. RICHMOND, VA",9490 WEST BROAD ST,9490 West Broad St,RICHMOND,Richmond,VA,23294,(804) 270-9277,(804) 270-2761,(804) 727-1973,,37.6413388,-77.5568967,,N,,,US,06.00.00,22.00.00,06.00.00,22.00.00,06.00.00,22.00.00,06.00.00,22.00.00,06.00.00,22.00.00,06.00.00,22.00.00,08.00.00,20.00.00,America/New_York,TRUE,TRUE,TRUE,TRUE,TRUE,TRUE,FALSE,,,,,,,,,,,,,,,,,,,,,
385,Irmo Lowe's,"LOWE'S OF IRMO, SC",390 HARBISON BLVD,390 Harbison Blvd,COLUMBIA,Columbia,SC,29212,(803) 749-1272,(803) 781-5420,(803) 476-1070,,34.08075667,-81.15218491,,N,,,US,06.00.00,22.00.00,06.00.00,22.00.00,06.00.00,22.00.00,06.00.00,22.00.00,06.00.00,22.00.00,06.00.00,22.00.00,08.00.00,20.00.00,America/New_York,TRUE,TRUE,TRUE,TRUE,TRUE,TRUE,FALSE,,,,,,,,,,,,,,,,,,,,,
387,N. Greensboro Lowe's,"LOWE'S OF N. GREENSBORO, NC",3001 BATTLEGROUND AVE,3001 Battleground Ave,GREENSBORO,Greensboro,NC,27408,(336) 545-2040,(336) 545-2057,(336) 545-1139,,36.11511014,-79.83723344,,N,,,US,06.00.00,22.00.00,06.00.00,22.00.00,06.00.00,22.00.00,06.00.00,22.00.00,06.00.00,22.00.00,06.00.00,22.00.00,08.00.00,20.00.00,America/New_York,TRUE,TRUE,TRUE,TRUE,TRUE,TRUE,FALSE,,,,,,,,,,,,,,,,,,,,,
388,Fayetteville Lowe's,"LOWE'S OF FAYETTEVILLE, NC",1929 SKIBO SQUARE,1929 Skibo Square,FAYETTEVILLE,Fayetteville,NC,28314,(910) 487-5600,(910) 487-5399,(910) 213-0021,,35.06642436,-78.96445867,,N,,,US,06.00.00,22.00.00,06.00.00,22.00.00,06.00.00,22.00.00,06.00.00,22.00.00,06.00.00,22.00.00,06.00.00,22.00.00,08.00.00,20.00.00,America/New_York,TRUE,TRUE,TRUE,TRUE,TRUE,TRUE,FALSE,,,,,,,,,,,,,,,,,,,,,
390,Hermitage Lowe's,"LOWE'S OF HERMITAGE, TN",5025 OLD HICKORY BLVD.,5025 Old Hickory Blvd.,HERMITAGE,Hermitage,TN,37076,(615) 883-8833,(615) 883-0917,(615) 316-2238,,36.19352354,-86.61957609,,N,,,US,06.00.00,22.00.00,06.00.00,22.00.00,06.00.00,22.00.00,06.00.00,22.00.00,06.00.00,22.00.00,06.00.00,22.00.00,08.00.00,20.00.00,America/Chicago,TRUE,TRUE,TRUE,TRUE,TRUE,TRUE,FALSE,,,,,,,,,,,,,,,,,,,,,
397,N. Manassas Lowe's,"LOWE'S OF N. MANASSAS, VA",7500 BROKEN BRANCH LANE,7500 Broken Branch Ln,MANASSAS,Manassas,VA,20109,(703) 361-9101,(703) 330-5891,(703) 334-3714,,38.79265488,-77.51439931,,N,,,US,06.00.00,22.00.00,06.00.00,22.00.00,06.00.00,22.00.00,06.00.00,22.00.00,06.00.00,22.00.00,06.00.00,22.00.00,08.00.00,20.00.00,America/New_York,TRUE,TRUE,TRUE,TRUE,TRUE,TRUE,FALSE,,,,,,,,,,,,,,,,,,,,,
402,Charles County Lowe's,"LOWE'S OF CHARLES COUNTY, MD",2525 CRAIN HWY,2525 Crain Hwy,WALDORF,Waldorf,MD,20601,(301) 843-9900,(301) 843-9125,(301) 265-4021,,38.64297019,-76.89625022,,N,,,US,06.00.00,22.00.00,06.00.00,22.00.00,06.00.00,22.00.00,06.00.00,22.00.00,06.00.00,22.00.00,06.00.00,22.00.00,08.00.00,20.00.00,America/New_York,TRUE,TRUE,TRUE,TRUE,TRUE,TRUE,FALSE,,,,,,,,,,,,,,,,,,,,,
403,S. Savannah Lowe's,"LOWE'S OF S. SAVANNAH, GA",11114 ABERCORN STREET,11114 Abercorn St,SAVANNAH,Savannah,GA,31419,(912) 927-0000,(912) 961-6788,(912) 927-0378,,31.98170233,-81.14130774,,N,,,US,06.00.00,22.00.00,06.00.00,22.00.00,06.00.00,22.00.00,06.00.00,22.00.00,06.00.00,22.00.00,06.00.00,22.00.00,08.00.00,20.00.00,America/New_York,TRUE,TRUE,TRUE,TRUE,TRUE,TRUE,FALSE,,,,,,,,,,,,,,,,,,,,,
404,S.W. Greensboro Lowe's,"LOWE'S OF S.W. GREENSBORO, NC",1703 SOUTH FORTY DRIVE,1703 South Forty Dr,GREENSBORO,Greensboro,NC,27407,(336) 292-4813,(336) 547-3953,(336) 543-1169,,36.05371484,-79.88727733,,N,,,US,06.00.00,22.00.00,06.00.00,22.00.00,06.00.00,22.00.00,06.00.00,22.00.00,06.00.00,22.00.00,06.00.00,22.00.00,08.00.00,20.00.00,America/New_York,TRUE,TRUE,TRUE,TRUE,TRUE,TRUE,FALSE,,,,,,,,,,,,,,,,,,,,,
408,N. Charlotte Lowe's,"LOWE'S OF N. CHARLOTTE, NC",1100 CHANCELLOR PARK DR,1100 Chancellor Park Dr,CHARLOTTE,Charlotte,NC,28213,(704) 597-2000,(704) 597-2018,(704) 501-0078,,35.29234314,-80.74205748,,N,,,US,06.00.00,22.00.00,06.00.00,22.00.00,06.00.00,22.00.00,06.00.00,22.00.00,06.00.00,22.00.00,06.00.00,22.00.00,08.00.00,20.00.00,America/New_York,TRUE,TRUE,TRUE,TRUE,TRUE,TRUE,TRUE,,,,,,,,,,,,,,,,,,,,,
410,Myrtle Beach Lowe's,"LOWE'S OF MYRTLE BEACH, SC",1160 SEABOARD STREET,1160 Seaboard St,MYRTLE BEACH,Myrtle Beach,SC,29577,(843) 626-1700,(843) 626-1714,(843) 582-0081,,33.7142734,-78.89259615,,N,,,US,06.00.00,22.00.00,06.00.00,22.00.00,06.00.00,22.00.00,06.00.00,22.00.00,06.00.00,22.00.00,06.00.00,22.00.00,08.00.00,20.00.00,America/New_York,TRUE,TRUE,TRUE,TRUE,TRUE,TRUE,FALSE,,,,,,,,,,,,,,,,,,,,,
411,Huntsville Lowe's,"LOWE'S OF HUNTSVILLE, AL",10050 S. MEMORIAL PARKWAY,10050 S. Memorial Pkwy,HUNTSVILLE,Huntsville,AL,35803,(256) 880-1981,(256) 880-1972,(256) 429-1489,,34.64270092,-86.56867242,,N,,,US,06.00.00,21.00.00,06.00.00,21.00.00,06.00.00,21.00.00,06.00.00,21.00.00,06.00.00,21.00.00,06.00.00,21.00.00,08.00.00,19.00.00,America/Chicago,TRUE,TRUE,TRUE,TRUE,TRUE,TRUE,FALSE,,,,,,,,,,,,,,,,,,,,,
413,Madison Lowe's,"LOWE'S OF MADISON, TN",10 CAMPBELL ROAD,10 Campbell Rd,MADISON,Madison,TN,37115,(615) 868-9810,(615) 868-9413,(615) 870-3018,,36.279098,-86.71119068,,N,,,US,06.00.00,22.00.00,06.00.00,22.00.00,06.00.00,22.00.00,06.00.00,22.00.00,06.00.00,22.00.00,06.00.00,22.00.00,08.00.00,20.00.00,America/Chicago,TRUE,TRUE,TRUE,TRUE,TRUE,TRUE,FALSE,,,,,,,,,,,,,,,,,,,,,
414,Jonesboro Lowe's,"LOWE'S OF JONESBORO, AR",2111 FAIR PARK BLVD,2111 Fair Park Blvd,JONESBORO,Jonesboro,AR,72401,(870) 930-9000,(870) 930-9196,(870) 333-0021,,35.81902554,-90.67423395,,N,,,US,06.00.00,22.00.00,06.00.00,22.00.00,06.00.00,22.00.00,06.00.00,22.00.00,06.00.00,22.00.00,06.00.00,22.00.00,08.00.00,19.00.00,America/Chicago,TRUE,TRUE,TRUE,TRUE,TRUE,TRUE,FALSE,,,,,,,,,,,,,,,,,,,,,
415,York Lowe's,"LOWE'S OF YORK, PA",2449 EAST MARKET STREET,2449 East Market St,YORK,York,PA,17402,(717) 757-4802,(717) 755-1566,(717) 676-4041,,39.9769353,-76.67753788,,N,,,US,06.00.00,22.00.00,06.00.00,22.00.00,06.00.00,22.00.00,06.00.00,22.00.00,06.00.00,22.00.00,06.00.00,22.00.00,08.00.00,20.00.00,America/New_York,TRUE,TRUE,TRUE,TRUE,TRUE,TRUE,FALSE,,,,,,,,,,,,,,,,,,,,,
416,Rock Hill Lowe's,"LOWE'S OF ROCK HILL, SC",1350 SPRINGDALE ROAD,1350 Springdale Rd,ROCK HILL,Rock Hill,SC,29730,(803) 324-3170,(803) 324-5326,(803) 323-5152,,34.93906531,-80.96266199,,N,,,US,06.00.00,22.00.00,06.00.00,22.00.00,06.00.00,22.00.00,06.00.00,22.00.00,06.00.00,22.00.00,06.00.00,22.00.00,08.00.00,20.00.00,America/New_York,TRUE,TRUE,TRUE,TRUE,TRUE,TRUE,TRUE,,,,,,,,,,,,,,,,,,,,,
417,N.E. Tallahassee Lowe's,"LOWE'S OF N.E. TALLAHASSEE, FL",2121 N.E. CAPITOL CIRCLE,2121 N.E. Capitol Cir,TALLAHASSEE,Tallahassee,FL,32308,(850) 386-5022,(850) 385-7581,(850) 298-6490,,30.48124275,-84.23486877,,N,,,US,06.00.00,22.00.00,06.00.00,22.00.00,06.00.00,22.00.00,06.00.00,22.00.00,06.00.00,22.00.00,06.00.00,22.00.00,08.00.00,20.00.00,America/New_York,TRUE,TRUE,TRUE,TRUE,TRUE,TRUE,FALSE,,,,,,,,,,,,,,,,,,,,,
419,Roanoke Lowe's,"LOWE'S OF ROANOKE, VA","5040 RUTGERS STREET, N.W.","5040 Rutgers Street, N.W.",ROANOKE,Roanoke,VA,24012,(540) 366-3838,(540) 366-0779,(540) 366-2413,,37.31626769,-79.96431891,,N,,,US,06.00.00,22.00.00,06.00.00,22.00.00,06.00.00,22.00.00,06.00.00,22.00.00,06.00.00,22.00.00,06.00.00,22.00.00,08.00.00,20.00.00,America/New_York,TRUE,TRUE,TRUE,TRUE,TRUE,TRUE,FALSE,,,,,,,,,,,,,,,,,,,,,
420,Newport News Lowe's,"LOWE'S OF NEWPORT NEWS, VA",300 CHATHAM DRIVE,300 Chatham Dr,NEWPORT NEWS,Newport News,VA,23602,(757) 988-1700,(757) 988-0212,(757) 746-1158,,37.1240247,-76.51196206,,N,,,US,06.00.00,22.00.00,06.00.00,22.00.00,06.00.00,22.00.00,06.00.00,22.00.00,06.00.00,22.00.00,06.00.00,22.00.00,08.00.00,20.00.00,America/New_York,TRUE,TRUE,TRUE,TRUE,TRUE,TRUE,FALSE,,,,,,,,,,,,,,,,,,,,,
422,Springfield Lowe's,"LOWE'S OF SPRINGFIELD, MO",1850 EAST PRIMROSE,1850 East Primrose,SPRINGFIELD,Springfield,MO,65804,(417) 889-1980,(417) 889-2637,(417) 576-9080,,37.14921407,-93.26135569,,N,,,US,06.00.00,22.00.00,06.00.00,22.00.00,06.00.00,22.00.00,06.00.00,22.00.00,06.00.00,22.00.00,06.00.00,22.00.00,08.00.00,20.00.00,America/Chicago,TRUE,TRUE,TRUE,TRUE,TRUE,TRUE,FALSE,,,,,,,,,,,,,,,,,,,,,
423,Tuscaloosa Lowe's,"LOWE'S OF TUSCALOOSA, AL",4900 OSCAR BAXTER DRIVE,4900 Oscar Baxter Dr,TUSCALOOSA,Tuscaloosa,AL,35405,(205) 759-4403,(205) 758-6308,(205) 861-1242,,33.16749816,-87.55398385,,N,,,US,06.00.00,21.00.00,06.00.00,21.00.00,06.00.00,21.00.00,06.00.00,21.00.00,06.00.00,21.00.00,06.00.00,21.00.00,08.00.00,19.00.00,America/Chicago,TRUE,TRUE,TRUE,TRUE,TRUE,TRUE,FALSE,,,,,,,,,,,,,,,,,,,,,
424,Salisbury Lowe's,"LOWE'S OF SALISBURY, MD",2606 N. SALISBURY BLVD.,2606 N. Salisbury Blvd.,SALISBURY,Salisbury,MD,21801,(410) 546-6300,(410) 546-6392,(443) 880-9025,,38.41134443,-75.56926599,,N,,,US,06.00.00,22.00.00,06.00.00,22.00.00,06.00.00,22.00.00,06.00.00,22.00.00,06.00.00,22.00.00,06.00.00,22.00.00,08.00.00,19.00.00,America/New_York,TRUE,TRUE,TRUE,TRUE,TRUE,TRUE,FALSE,,,,,,,,,,,,,,,,,,,,,
425,Chattanooga Lowe's,"LOWE'S OF CHATTANOOGA, TN",2180 GUNBARREL ROAD,2180 Gunbarrel Rd,CHATTANOOGA,Chattanooga,TN,37421,(423) 954-2400,(423) 954-2422,(423) 954-2927,,35.03524517,-85.14987537,,N,,,US,06.00.00,22.00.00,06.00.00,22.00.00,06.00.00,22.00.00,06.00.00,22.00.00,06.00.00,22.00.00,06.00.00,22.00.00,08.00.00,20.00.00,America/New_York,TRUE,TRUE,TRUE,TRUE,TRUE,TRUE,FALSE,,,,,,,,,,,,,,,,,,,,,
426,Cary Lowe's,"LOWE'S OF CARY, NC",2000 WALNUT STREET,2000 Walnut St,CARY,Cary,NC,27518,(919) 233-7000,(919) 233-7018,(919) 455-0077,,35.75739021,-78.74308221,,N,,,US,06.00.00,22.00.00,06.00.00,22.00.00,06.00.00,22.00.00,06.00.00,22.00.00,06.00.00,22.00.00,06.00.00,22.00.00,08.00.00,20.00.00,America/New_York,TRUE,TRUE,TRUE,TRUE,TRUE,TRUE,FALSE,,,,,,,,,,,,,,,,,,,,,
428,Shreveport Lowe's,"LOWE'S OF SHREVEPORT, LA",2710 ALKAY DRIVE,2710 Alkay Dr,SHREVEPORT,Shreveport,LA,71118,(318) 683-3000,(318) 683-3014,(318) 655-9029,,32.41009832,-93.8001716,,N,,,US,06.00.00,22.00.00,06.00.00,22.00.00,06.00.00,22.00.00,06.00.00,22.00.00,06.00.00,22.00.00,06.00.00,22.00.00,08.00.00,20.00.00,America/Chicago,TRUE,TRUE,TRUE,TRUE,TRUE,TRUE,FALSE,,,,,,,,,,,,,,,,,,,,,
432,Fayetteville Lowe's,"LOWE'S OF FAYETTEVILLE, AR",1050 ZION ROAD,1050 Zion Rd,FAYETTEVILLE,Fayetteville,AR,72703,(479) 587-9000,(479) 587-0677,(479) 387-3058,,36.13013923,-94.14310697,,N,,,US,06.00.00,22.00.00,06.00.00,22.00.00,06.00.00,22.00.00,06.00.00,22.00.00,06.00.00,22.00.00,06.00.00,22.00.00,08.00.00,20.00.00,America/Chicago,TRUE,TRUE,TRUE,TRUE,TRUE,TRUE,FALSE,,,,,,,,,,,,,,,,,,,,,
433,N.E. Columbia Lowe's,"LOWE'S OF N.E. COLUMBIA, SC",7441 TWO NOTCH ROAD,7441 Two Notch Rd,COLUMBIA,Columbia,SC,29223,(803) 865-1000,(803) 865-1014,(803) 476-0068,,34.07209023,-80.95193193,,N,,,US,06.00.00,22.00.00,06.00.00,22.00.00,06.00.00,22.00.00,06.00.00,22.00.00,06.00.00,22.00.00,06.00.00,22.00.00,08.00.00,20.00.00,America/New_York,TRUE,TRUE,TRUE,TRUE,TRUE,TRUE,FALSE,,,,,,,,,,,,,,,,,,,,,
434,Gainesville Lowe's,"LOWE'S OF GAINESVILLE, GA",1514 SKELTON ROAD,1514 Skelton Rd,GAINESVILLE,Gainesville,GA,30504,(770) 532-1926,(770) 532-9902,(770) 906-9020,,34.29057843,-83.84883656,,N,,,US,06.00.00,22.00.00,06.00.00,22.00.00,06.00.00,22.00.00,06.00.00,22.00.00,06.00.00,22.00.00,06.00.00,22.00.00,08.00.00,20.00.00,America/New_York,TRUE,TRUE,TRUE,TRUE,TRUE,TRUE,FALSE,,,,,,,,,,,,,,,,,,,,,
435,Pikeville Lowe's,"LOWE'S OF PIKEVILLE, KY",183 CASSADY BLVD.,183 Cassady Blvd,PIKEVILLE,Pikeville,KY,41501,(606) 433-0020,(606) 432-4189,(606) 433-2188,,37.50344557,-82.53607876,,N,,,US,07.00.00,21.00.00,07.00.00,21.00.00,07.00.00,21.00.00,07.00.00,21.00.00,07.00.00,21.00.00,07.00.00,21.00.00,09.00.00,19.00.00,America/New_York,TRUE,TRUE,TRUE,TRUE,TRUE,TRUE,FALSE,,,,,,,,,,,,,,,,,,,,,
436,West Winston Lowe's,"LOWE'S OF WEST WINSTON, NC",935 HANES MALL BLVD,935 Hanes Mall Blvd,WINSTON SALEM,Winston Salem,NC,27103,(336) 768-2400,(336) 768-2644,(336) 768-1750,,36.06358635,-80.31345222,,N,,Yes,US,06.00.00,22.00.00,06.00.00,22.00.00,06.00.00,22.00.00,06.00.00,22.00.00,06.00.00,22.00.00,06.00.00,22.00.00,08.00.00,20.00.00,America/New_York,TRUE,TRUE,TRUE,TRUE,TRUE,TRUE,FALSE,,,,,,,,,,,,,,,,,,,,,
437,Lynchburg Lowe's,"LOWE'S OF LYNCHBURG, VA",8216 TIMBERLAKE ROAD,8216 Timberlake Rd,LYNCHBURG,Lynchburg,VA,24502,(434) 239-7600,(434) 239-9822,(434) 239-7692,,37.34560159,-79.23231842,,N,,,US,06.00.00,22.00.00,06.00.00,22.00.00,06.00.00,22.00.00,06.00.00,22.00.00,06.00.00,22.00.00,06.00.00,22.00.00,08.00.00,20.00.00,America/New_York,TRUE,TRUE,TRUE,TRUE,TRUE,TRUE,FALSE,,,,,,,,,,,,,,,,,,,,,
438,Pensacola Lowe's,"LOWE'S OF PENSACOLA, FL",1201 AIRPORT BLVD,1201 Airport Blvd,PENSACOLA,Pensacola,FL,32504,(850) 857-7900,(850) 857-7914,(850) 316-1983,,30.48009988,-87.21381475,,N,,,US,06.00.00,22.00.00,06.00.00,22.00.00,06.00.00,22.00.00,06.00.00,22.00.00,06.00.00,22.00.00,06.00.00,22.00.00,08.00.00,20.00.00,America/Chicago,TRUE,TRUE,TRUE,TRUE,TRUE,TRUE,FALSE,,,,,,,,,,,,,,,,,,,,,
439,Chesapeake Lowe's,"LOWE'S OF CHESAPEAKE, VA","1308 BATTLEFIELD BLVD, NORTH","1308 Battlefield Blvd, North",CHESAPEAKE,Chesapeake,VA,23320,(757) 436-0707,(757) 547-2436,(757) 553-9023,,36.76308128,-76.25298491,,N,,,US,06.00.00,22.00.00,06.00.00,22.00.00,06.00.00,22.00.00,06.00.00,22.00.00,06.00.00,22.00.00,06.00.00,22.00.00,08.00.00,20.00.00,America/New_York,TRUE,TRUE,TRUE,TRUE,TRUE,TRUE,FALSE,,,,,,,,,,,,,,,,,,,,,
440,Ocala Lowe's,"LOWE'S OF OCALA, FL",3535 SW 36TH AVENUE,3535 SW 36th Ave,OCALA,Ocala,FL,34474,(352) 237-7600,(352) 873-4152,(352) 237-2961,,29.1510166,-82.18123189,,N,,,US,06.00.00,22.00.00,06.00.00,22.00.00,06.00.00,22.00.00,06.00.00,22.00.00,06.00.00,22.00.00,06.00.00,22.00.00,08.00.00,20.00.00,America/New_York,TRUE,TRUE,TRUE,TRUE,TRUE,TRUE,FALSE,,,,,,,,,,,,,,,,,,,,,
441,S. Montgomery Lowe's,"LOWE'S OF S. MONTGOMERY, AL",1950 EASTERN BLVD,1950 Eastern Blvd,MONTGOMERY,Montgomery,AL,36117,(334) 409-9000,(334) 272-4492,(334) 279-9225,,32.35456686,-86.22015393,,N,,,US,06.00.00,22.00.00,06.00.00,22.00.00,06.00.00,22.00.00,06.00.00,22.00.00,06.00.00,22.00.00,06.00.00,22.00.00,08.00.00,20.00.00,America/Chicago,TRUE,TRUE,TRUE,TRUE,TRUE,TRUE,FALSE,,,,,,,,,,,,,,,,,,,,,
442,S. Indianapolis Lowe's,"LOWE'S OF S. INDIANAPOLIS, IN",8850 SOUTH MADISON AVENUE,8850 South Madison Ave,INDIANAPOLIS,Indianapolis,IN,46227,(317) 881-0050,(317) 881-0057,(317) 215-3019,,39.63698034,-86.11924731,,N,http://images.lowes.com/general/n/NRdiamond.gif,,US,06.00.00,22.00.00,06.00.00,22.00.00,06.00.00,22.00.00,06.00.00,22.00.00,06.00.00,22.00.00,06.00.00,22.00.00,08.00.00,20.00.00,America/New_York,TRUE,TRUE,TRUE,TRUE,TRUE,TRUE,FALSE,,,,,,,,,,,,,,,,,,,,,
444,N. Raleigh Lowe's,"LOWE'S OF N. RALEIGH, NC",4601 CAPITAL BLVD.,4601 Capital Blvd,RALEIGH,Raleigh,NC,27604,(919) 850-9300,(919) 850-2042,(919) 455-0109,,35.84596251,-78.58149498,,N,,,US,06.00.00,22.00.00,06.00.00,22.00.00,06.00.00,22.00.00,06.00.00,22.00.00,06.00.00,22.00.00,06.00.00,22.00.00,08.00.00,20.00.00,America/New_York,TRUE,TRUE,TRUE,TRUE,TRUE,TRUE,FALSE,,,,,,,,,,,,,,,,,,,,,
445,University Centre Lowe's,"LOWE'S OF UNIVERSITY CENTRE, NC",354 SOUTH COLLEGE ROAD,354 South College Rd,WILMINGTON,Wilmington,NC,28403,(910) 395-8433,(910) 395-8447,(910) 793-3264,,34.23640443,-77.87882842,,N,,,US,06.00.00,22.00.00,06.00.00,22.00.00,06.00.00,22.00.00,06.00.00,22.00.00,06.00.00,22.00.00,06.00.00,22.00.00,08.00.00,20.00.00,America/New_York,TRUE,TRUE,TRUE,TRUE,TRUE,TRUE,FALSE,,,,,,,,,,,,,,,,,,,,,
446,Altoona Lowe's,"LOWE'S OF ALTOONA, PA",1707 MCMAHON ROAD,1707 Mcmahon Rd,ALTOONA,Altoona,PA,16602,(814) 941-6000,(814) 941-6642,(814) 312-9029,,40.49538086,-78.38721061,,N,,,US,06.00.00,22.00.00,06.00.00,22.00.00,06.00.00,22.00.00,06.00.00,22.00.00,06.00.00,22.00.00,06.00.00,22.00.00,08.00.00,20.00.00,America/New_York,TRUE,TRUE,TRUE,TRUE,TRUE,TRUE,FALSE,,,,,,,,,,,,,,,,,,,,,
447,Christiansburg Lowe's,"LOWE'S OF CHRISTIANSBURG, VA","350 PEPPERS FERRY ROAD, NE","350 Peppers Ferry Rd, NE",CHRISTIANSBURG,Christiansburg,VA,24073,(540) 381-1000,(540) 381-5483,(540) 382-5300,,37.16340234,-80.41677703,,N,,,US,06.00.00,22.00.00,06.00.00,22.00.00,06.00.00,22.00.00,06.00.00,22.00.00,06.00.00,22.00.00,06.00.00,22.00.00,08.00.00,20.00.00,America/New_York,TRUE,TRUE,TRUE,TRUE,TRUE,TRUE,FALSE,,,,,,,,,,,,,,,,,,,,,
448,Panama City Lowe's,"LOWE'S OF PANAMA CITY, FL",300 EAST 23RD STREET,300 East 23rd St,PANAMA CITY,Panama City,FL,32405,(850) 913-1600,(850) 763-9205,(850) 767-2590,,30.18812988,-85.65507313,,N,http://images.lowes.com/general/n/NRdiamond.gif,,US,06.00.00,22.00.00,06.00.00,22.00.00,06.00.00,22.00.00,06.00.00,22.00.00,06.00.00,22.00.00,06.00.00,22.00.00,08.00.00,20.00.00,America/Chicago,TRUE,TRUE,TRUE,TRUE,TRUE,TRUE,FALSE,,,,,,,,,,,,,,,,,,,,,
449,Asheboro Lowe's,"LOWE'S OF ASHEBORO, NC",1120 EAST DIXIE DRIVE,1120 East Dixie Dr,ASHEBORO,Asheboro,NC,27203,(336) 629-6100,(336) 629-0297,(336) 629-8286,,35.69338383,-79.79389139,,N,,,US,07.00.00,21.00.00,07.00.00,21.00.00,07.00.00,21.00.00,07.00.00,21.00.00,07.00.00,21.00.00,07.00.00,21.00.00,09.00.00,19.00.00,America/New_York,TRUE,TRUE,TRUE,TRUE,TRUE,TRUE,FALSE,,,,,,,,,,,,,,,,,,,,,
450,Monroe Lowe's,"LOWE'S OF MONROE, LA",4750 FRONTAGE ROAD,4750 Frontage Rd,MONROE,Monroe,LA,71202,(318) 388-5200,(318) 387-0442,(318) 267-3059,,32.49332319,-92.05940659,,N,,,US,06.00.00,22.00.00,06.00.00,22.00.00,06.00.00,22.00.00,06.00.00,22.00.00,06.00.00,22.00.00,06.00.00,22.00.00,08.00.00,20.00.00,America/Chicago,TRUE,TRUE,TRUE,TRUE,TRUE,TRUE,FALSE,,,,,,,,,,,,,,,,,,,,,
451,Bowling Green Lowe's,"LOWE'S OF BOWLING GREEN, KY",150 AMERICAN LANE,150 American Ln,BOWLING GREEN,Bowling Green,KY,42104,(270) 796-5000,(270) 796-5018,(270) 901-3408,,36.94883487,-86.43728338,,N,,,US,06.00.00,21.00.00,06.00.00,21.00.00,06.00.00,21.00.00,06.00.00,21.00.00,06.00.00,21.00.00,06.00.00,21.00.00,08.00.00,19.00.00,America/Chicago,TRUE,TRUE,TRUE,TRUE,TRUE,TRUE,FALSE,,,,,,,,,,,,,,,,,,,,,
452,Bowie Lowe's,"LOWE'S OF BOWIE, MD",16301 HERITAGE BLVD.,16301 Heritage Blvd,BOWIE,Bowie,MD,20716,(301) 805-8000,(301) 809-0176,(301) 291-2061,,38.94475498,-76.7208128,,N,,,US,06.00.00,22.00.00,06.00.00,22.00.00,06.00.00,22.00.00,06.00.00,22.00.00,06.00.00,22.00.00,06.00.00,22.00.00,08.00.00,20.00.00,America/New_York,TRUE,TRUE,TRUE,TRUE,TRUE,TRUE,FALSE,,,,,,,,,,,,,,,,,,,,,
453,Springfield Lowe's,"LOWE'S OF SPRINGFIELD, OH",1601 NORTH BECHTLE AVENUE,1601 North Bechtle Ave,SPRINGFIELD,Springfield,OH,45504,(937) 327-6000,(937) 327-6014,(937) 471-9101,,39.9451446,-83.83605853,,N,http://images.lowes.com/general/n/NRdiamond.gif,,US,06.00.00,22.00.00,06.00.00,22.00.00,06.00.00,22.00.00,06.00.00,22.00.00,06.00.00,22.00.00,06.00.00,22.00.00,08.00.00,20.00.00,America/New_York,TRUE,TRUE,TRUE,TRUE,TRUE,TRUE,FALSE,,,,,,,,,,,,,,,,,,,,,
454,Barboursville Lowe's,"LOWE'S OF BARBOURSVILLE, WV",700 MALL ROAD,700 Mall Rd,BARBOURSVILLE,Barboursville,WV,25504,(304) 736-8900,(304) 736-3046,(304) 736-9197,,38.41757577,-82.26701415,,N,,,US,06.00.00,22.00.00,06.00.00,22.00.00,06.00.00,22.00.00,06.00.00,22.00.00,06.00.00,22.00.00,06.00.00,22.00.00,08.00.00,20.00.00,America/New_York,TRUE,TRUE,TRUE,TRUE,TRUE,TRUE,FALSE,,,,,,,,,,,,,,,,,,,,,
455,Burlington Lowe's,"LOWE'S OF BURLINGTON, OH","294 COUNTY ROAD, 120 SOUTH","294 County Road, 120 South",SOUTH POINT,South Point,OH,45680,(740) 894-7120,(740) 894-1639,(740) 894-7713,,38.4113273,-82.52907138,,N,,,US,07.00.00,21.00.00,07.00.00,21.00.00,07.00.00,21.00.00,07.00.00,21.00.00,07.00.00,21.00.00,07.00.00,21.00.00,08.00.00,19.00.00,America/New_York,TRUE,TRUE,TRUE,TRUE,TRUE,TRUE,FALSE,,,,,,,,,,,,,,,,,,,,,
456,Bristol Lowe's,"LOWE'S OF BRISTOL, VA",13255 LEE HIGHWAY,13255 Lee Highway,BRISTOL,Bristol,VA,24202,(276) 466-9000,(276) 466-9454,(276) 466-0263,,36.6367594,-82.12803079,,N,,,US,06.00.00,22.00.00,06.00.00,22.00.00,06.00.00,22.00.00,06.00.00,22.00.00,06.00.00,22.00.00,06.00.00,22.00.00,08.00.00,20.00.00,America/New_York,TRUE,TRUE,TRUE,TRUE,TRUE,TRUE,FALSE,,,,,,,,,,,,,,,,,,,,,
457,Franklin Square Lowe's,"LOWE'S OF FRANKLIN SQUARE, NC",3250 EAST FRANKLIN BLVD.,3250 East Franklin Blvd.,GASTONIA,Gastonia,NC,28056,(704) 865-6767,(704) 854-8842,(704) 915-3189,,35.25980814,-81.12031389,,N,,,US,06.00.00,22.00.00,06.00.00,22.00.00,06.00.00,22.00.00,06.00.00,22.00.00,06.00.00,22.00.00,06.00.00,22.00.00,08.00.00,20.00.00,America/New_York,TRUE,TRUE,TRUE,TRUE,TRUE,TRUE,TRUE,,,,,,,,,,,,,,,,,,,,,
458,Statesville Lowe's,"LOWE'S OF STATESVILLE, NC",140 N. POINTE BLVD.,140 N. Pointe Blvd,STATESVILLE,Statesville,NC,28625,(704) 878-9440,(704) 878-6767,(704) 253-6652,,35.81705842,-80.87967474,,N,,,US,06.00.00,22.00.00,06.00.00,22.00.00,06.00.00,22.00.00,06.00.00,22.00.00,06.00.00,22.00.00,06.00.00,22.00.00,08.00.00,20.00.00,America/New_York,TRUE,TRUE,TRUE,TRUE,TRUE,TRUE,FALSE,,,,,,,,,,,,,,,,,,,,,
459,N. High Point Lowe's,"LOWE'S OF N. HIGH POINT, NC",2600 NORTH MAIN STREET,2600 North Main St,HIGH POINT,High Point,NC,27265,(336) 889-8600,(336) 289-7800,(336) 889-8533,,35.99169379,-80.02653512,,N,,,US,06.00.00,22.00.00,06.00.00,22.00.00,06.00.00,22.00.00,06.00.00,22.00.00,06.00.00,22.00.00,06.00.00,22.00.00,08.00.00,20.00.00,America/New_York,TRUE,TRUE,TRUE,TRUE,TRUE,TRUE,FALSE,,,,,,,,,,,,,,,,,,,,,
460,Elizabethtown Lowe's,"LOWE'S OF ELIZABETHTOWN, KY",100 LOWE'S DRIVE,100 Lowe's Dr,ELIZABETHTOWN,Elizabethtown,KY,42701,(270) 737-5500,(270) 765-2250,(270) 737-3817,,37.73078266,-85.88144139,,N,,,US,06.00.00,22.00.00,06.00.00,22.00.00,06.00.00,22.00.00,06.00.00,22.00.00,06.00.00,22.00.00,06.00.00,22.00.00,08.00.00,20.00.00,America/New_York,TRUE,TRUE,TRUE,TRUE,TRUE,TRUE,FALSE,,,,,,,,,,,,,,,,,,,,,
461,N. Baton Rouge Lowe's,"LOWE'S OF N. BATON ROUGE, LA",9460 CORTANA PLACE,9460 Cortana Pl,BATON ROUGE,Baton Rouge,LA,70815,(225) 928-7200,(225) 928-1376,(225) 615-3646,,30.46202122,-91.09355971,,N,,,US,06.00.00,22.00.00,06.00.00,22.00.00,06.00.00,22.00.00,06.00.00,22.00.00,06.00.00,22.00.00,06.00.00,22.00.00,08.00.00,20.00.00,America/Chicago,TRUE,TRUE,TRUE,TRUE,TRUE,TRUE,FALSE,,,,,,,,,,,,,,,,,,,,,
462,Fort Smith Lowe's,"LOWE'S OF FORT SMITH, AR",8001 ROGERS AVENUE,8001 Rogers Ave,FORT SMITH,Fort Smith,AR,72903,(479) 452-6000,(479) 452-6062,(479) 452-8104,,35.35068913,-94.34385493,,N,,,US,06.00.00,22.00.00,06.00.00,22.00.00,06.00.00,22.00.00,06.00.00,22.00.00,06.00.00,22.00.00,06.00.00,22.00.00,08.00.00,20.00.00,America/Chicago,TRUE,TRUE,TRUE,TRUE,TRUE,TRUE,FALSE,,,,,,,,,,,,,,,,,,,,,
463,Tyler Lowe's,"LOWE'S OF TYLER, TX",5720 SOUTH BROADWAY,5720 South Broadway,TYLER,Tyler,TX,75703,(903) 581-8500,(903) 561-2351,(903) 283-9038,,32.28575913,-95.30205515,,N,,,US,06.00.00,22.00.00,06.00.00,22.00.00,06.00.00,22.00.00,06.00.00,22.00.00,06.00.00,22.00.00,06.00.00,22.00.00,08.00.00,20.00.00,America/Chicago,TRUE,TRUE,TRUE,TRUE,TRUE,TRUE,FALSE,,,,,,,,,,,,,,,,,,,,,
464,Winchester Lowe's,"LOWE'S OF WINCHESTER, KY",1221 BY-PASS ROAD,1221 By-Pass Rd,WINCHESTER,Winchester,KY,40391,(859) 744-6700,(859) 744-5252,(859) 737-8256,,37.99764927,-84.21653141,,N,,,US,07.00.00,21.00.00,07.00.00,21.00.00,07.00.00,21.00.00,07.00.00,21.00.00,07.00.00,21.00.00,07.00.00,21.00.00,09.00.00,19.00.00,America/New_York,TRUE,TRUE,TRUE,TRUE,TRUE,TRUE,FALSE,,,,,,,,,,,,,,,,,,,,,
465,Paducah Lowe's,"LOWE'S OF PADUCAH, KY",5176 HINKLEVILLE ROAD,5176 Hinkleville Rd,PADUCAH,Paducah,KY,42001,(270) 441-7000,(270) 443-8100,(270) 415-6948,,37.07289739,-88.69180335,,N,,,US,06.00.00,21.00.00,06.00.00,21.00.00,06.00.00,21.00.00,06.00.00,21.00.00,06.00.00,21.00.00,06.00.00,21.00.00,08.00.00,20.00.00,America/Chicago,TRUE,TRUE,TRUE,TRUE,TRUE,TRUE,FALSE,,,,,,,,,,,,,,,,,,,,,
466,Gulfport Lowe's,"LOWE'S OF GULFPORT, MS",2151 JOHN HILL BOULEVARD,2151 John Hill Blvd,GULFPORT,Gulfport,MS,39501,(228) 867-9000,(228) 868-0946,(228) 575-3984,,30.39643046,-89.08754351,,N,,,US,06.00.00,22.00.00,06.00.00,22.00.00,06.00.00,22.00.00,06.00.00,22.00.00,06.00.00,22.00.00,06.00.00,22.00.00,07.00.00,19.00.00,America/Chicago,TRUE,TRUE,TRUE,TRUE,TRUE,TRUE,FALSE,,,,,,,,,,,,,,,,,,,,,
467,Orange City Lowe's,"LOWE'S OF ORANGE CITY, FL",901 SAXON BLVD.,901 Saxon Blvd,ORANGE CITY,Orange City,FL,32763,(386) 774-7000,(386) 774-0396,(386) 960-9019,,28.91393225,-81.28927714,,N,,,US,06.00.00,22.00.00,06.00.00,22.00.00,06.00.00,22.00.00,06.00.00,22.00.00,06.00.00,22.00.00,07.00.00,22.00.00,08.00.00,20.00.00,America/New_York,TRUE,TRUE,TRUE,TRUE,TRUE,TRUE,FALSE,,,,,,,,,,,,,,,,,,,,,
468,Allegany Lowe's,"LOWE'S OF ALLEGANY, MD",1211 NATIONAL HIGHWAY,1211 National Highway,LAVALE,Lavale,MD,21502,(301) 729-9200,(301) 729-9218,(301) 876-6022,,39.6406588,-78.83348579,,N,,,US,06.00.00,22.00.00,06.00.00,22.00.00,06.00.00,22.00.00,06.00.00,22.00.00,06.00.00,22.00.00,06.00.00,22.00.00,08.00.00,20.00.00,America/New_York,TRUE,TRUE,TRUE,TRUE,TRUE,TRUE,FALSE,,,,,,,,,,,,,,,,,,,,,
469,Easley Lowe's,"LOWE'S OF EASLEY, SC",6068 CALHOUN MEMORIAL HWY,6068 Calhoun Memorial Hwy,EASLEY,Easley,SC,29640,(864) 306-6767,(864) 306-6673,(864) 306-5019,,34.82503319,-82.57673181,,N,,,US,06.00.00,22.00.00,06.00.00,22.00.00,06.00.00,22.00.00,06.00.00,22.00.00,06.00.00,22.00.00,06.00.00,22.00.00,08.00.00,20.00.00,America/New_York,TRUE,TRUE,TRUE,TRUE,TRUE,TRUE,FALSE,,,,,,,,,,,,,,,,,,,,,
470,Waynesville Lowe's,"LOWE'S OF WAYNESVILLE, NC",100 LINER COVE ROAD,100 Liner Cove Rd,WAYNESVILLE,Waynesville,NC,28786,(828) 456-9999,(828) 456-9589,(828) 476-3019,,35.52006929,-82.95800444,,N,,,US,07.00.00,21.00.00,07.00.00,21.00.00,07.00.00,21.00.00,07.00.00,21.00.00,07.00.00,21.00.00,07.00.00,21.00.00,08.00.00,19.00.00,America/New_York,TRUE,TRUE,TRUE,TRUE,TRUE,TRUE,FALSE,,,,,,,,,,,,,,,,,,,,,
471,Hagerstown Lowe's,"LOWE'S OF HAGERSTOWN, MD",1500 WESEL BLVD.,1500 Wesel Blvd,HAGERSTOWN,Hagerstown,MD,21740,(301) 766-7200,(301) 766-7218,(240) 313-7871,,39.6336208,-77.75991898,,N,,,US,06.00.00,22.00.00,06.00.00,22.00.00,06.00.00,22.00.00,06.00.00,22.00.00,06.00.00,22.00.00,06.00.00,22.00.00,08.00.00,20.00.00,America/New_York,TRUE,TRUE,TRUE,TRUE,TRUE,TRUE,FALSE,,,,,,,,,,,,,,,,,,,,,
472,Chillicothe Lowe's,"LOWE'S OF CHILLICOTHE, OH",867 NORTH BRIDGE STREET,867 North Bridge St,CHILLICOTHE,Chillicothe,OH,45601,(740) 773-7777,(740) 773-0389,(740) 772-0339,,39.35231325,-82.97460234,,N,,,US,07.00.00,21.00.00,07.00.00,21.00.00,07.00.00,21.00.00,07.00.00,21.00.00,07.00.00,21.00.00,07.00.00,21.00.00,08.00.00,20.00.00,America/New_York,TRUE,TRUE,TRUE,TRUE,TRUE,TRUE,FALSE,,,,,,,,,,,,,,,,,,,,,
473,Wood County Lowe's,"LOWE'S OF WOOD COUNTY, WV",1300 GRAND CENTRAL AVENUE,1300 Grand Central Ave,VIENNA,Vienna,WV,26105,(304) 295-3000,(304) 295-0786,(304) 210-9057,,39.31210045,-81.55088207,,N,,,US,06.00.00,22.00.00,06.00.00,22.00.00,06.00.00,22.00.00,06.00.00,22.00.00,06.00.00,22.00.00,06.00.00,22.00.00,08.00.00,20.00.00,America/New_York,TRUE,TRUE,TRUE,TRUE,TRUE,TRUE,FALSE,,,,,,,,,,,,,,,,,,,,,
474,E. Louisville Lowe's,"LOWE'S OF E. LOUISVILLE, KY",501 SO. HURSTBOURNE PKWY,501 So. Hurstbourne Pkwy,LOUISVILLE,Louisville,KY,40222,(502) 394-9400,(502) 394-9665,(502) 394-3996,,38.23982092,-85.57458637,,N,,,US,06.00.00,22.00.00,06.00.00,22.00.00,06.00.00,22.00.00,06.00.00,22.00.00,06.00.00,22.00.00,06.00.00,22.00.00,08.00.00,20.00.00,America/New_York,TRUE,TRUE,TRUE,TRUE,TRUE,TRUE,FALSE,,,,,,,,,,,,,,,,,,,,,
476,Fredericksburg Lowe's,"LOWE'S OF FREDERICKSBURG, VA",1361 CARL D. SILVER PKWY,1361 Carl D. Silver Pkwy,FREDERICKSBURG,Fredericksburg,VA,22401,(540) 786-9050,(540) 785-4185,(540) 786-9065,,38.29978015,-77.50773832,,N,,,US,06.00.00,22.00.00,06.00.00,22.00.00,06.00.00,22.00.00,06.00.00,22.00.00,06.00.00,22.00.00,06.00.00,22.00.00,08.00.00,20.00.00,America/New_York,TRUE,TRUE,TRUE,TRUE,TRUE,TRUE,FALSE,,,,,,,,,,,,,,,,,,,,,
477,Wheelersburg Lowe's,"LOWE'S OF WHEELERSBURG, OH",7915 OHIO RIVER ROAD,7915 Ohio River Rd,WHEELERSBURG,Wheelersburg,OH,45694,(740) 574-6200,(740) 574-4705,(740) 574-9989,,38.73490956,-82.86211953,,N,,,US,07.00.00,21.00.00,07.00.00,21.00.00,07.00.00,21.00.00,07.00.00,21.00.00,07.00.00,21.00.00,07.00.00,21.00.00,08.00.00,19.00.00,America/New_York,TRUE,TRUE,TRUE,TRUE,TRUE,TRUE,FALSE,,,,,,,,,,,,,,,,,,,,,
478,Mount Airy Lowe's,"LOWE'S OF MOUNT AIRY, NC","692 SOUTH ANDY GRIFFITH PARKWAY, STE. 100","692 South Andy Griffith Parkway, Ste. 100",MOUNT AIRY,Mount Airy,NC,27030,(336) 789-6100,(336) 789-3877,(336) 789-0650,,36.48489509,-80.61587695,,N,,,US,07.00.00,21.00.00,07.00.00,21.00.00,07.00.00,21.00.00,07.00.00,21.00.00,07.00.00,21.00.00,07.00.00,21.00.00,08.00.00,19.00.00,America/New_York,TRUE,TRUE,TRUE,TRUE,TRUE,TRUE,FALSE,,,,,,,,,,,,,,,,,,,,,
479,FT. Walton Beach Lowe's,"LOWE'S OF FT. WALTON BEACH, FL",774 BEAL PARKWAY,774 Beal Pkwy,FORT WALTON BEACH,Fort Walton Beach,FL,32547,(850) 863-0900,(850) 863-3101,(850) 374-9022,,30.44371346,-86.63975178,,N,http://images.lowes.com/general/n/NRdiamond.gif,,US,06.00.00,22.00.00,06.00.00,22.00.00,06.00.00,22.00.00,06.00.00,22.00.00,06.00.00,22.00.00,06.00.00,22.00.00,08.00.00,20.00.00,America/Chicago,TRUE,TRUE,TRUE,TRUE,TRUE,TRUE,FALSE,,,,,,,,,,,,,,,,,,,,,
480,N. Winston Lowe's,"LOWE'S OF N. WINSTON, NC",5901 UNIVERSITY PKY,5901 University Pky,WINSTON SALEM,Winston Salem,NC,27105,(336) 377-3800,(336) 377-3818,(336) 377-3816,,36.18297671,-80.27256794,,N,,Yes,US,06.00.00,22.00.00,06.00.00,22.00.00,06.00.00,22.00.00,06.00.00,22.00.00,06.00.00,22.00.00,06.00.00,22.00.00,08.00.00,20.00.00,America/New_York,TRUE,TRUE,TRUE,TRUE,TRUE,TRUE,FALSE,,,,,,,,,,,,,,,,,,,,,
481,Florence Lowe's,"LOWE'S OF FLORENCE, AL",130 COX CREEK PKWY. SOUTH,130 Cox Creek Pkwy. South,FLORENCE,Florence,AL,35630,(256) 764-7887,(256) 764-3732,(256) 764-9785,,34.82803715,-87.62999361,,N,,,US,06.00.00,21.00.00,06.00.00,21.00.00,06.00.00,21.00.00,06.00.00,21.00.00,06.00.00,21.00.00,06.00.00,21.00.00,08.00.00,19.00.00,America/Chicago,TRUE,TRUE,TRUE,TRUE,TRUE,TRUE,FALSE,,,,,,,,,,,,,,,,,,,,,
482,Augusta Lowe's,"LOWE'S OF AUGUSTA, GA",224 BOBBY JONES EXP.,224 Bobby Jones Exp,AUGUSTA,Augusta,GA,30907,(706) 651-8600,(706) 860-0948,(706) 220-1081,,33.50756224,-82.09087239,,N,,,US,06.00.00,22.00.00,06.00.00,22.00.00,06.00.00,22.00.00,06.00.00,22.00.00,06.00.00,22.00.00,06.00.00,22.00.00,08.00.00,20.00.00,America/New_York,TRUE,TRUE,TRUE,TRUE,TRUE,TRUE,FALSE,,,,,,,,,,,,,,,,,,,,,
483,Warner Robins Lowe's,"LOWE'S OF WARNER ROBINS, GA",2704 WATSON BLVD.,2704 Watson Blvd,WARNER ROBINS,Warner Robins,GA,31093,(478) 953-6700,(478) 953-6719,(478) 971-3519,,32.62025122,-83.67062799,,N,,,US,06.00.00,22.00.00,06.00.00,22.00.00,06.00.00,22.00.00,06.00.00,22.00.00,06.00.00,22.00.00,06.00.00,22.00.00,08.00.00,20.00.00,America/New_York,TRUE,TRUE,TRUE,TRUE,TRUE,TRUE,FALSE,,,,,,,,,,,,,,,,,,,,,
484,Lafayette Lowe's,"LOWE'S OF LAFAYETTE, LA",3726 AMBASSADOR CAFFERY,3726 Ambassador Caffery,LAFAYETTE,Lafayette,LA,70503,(337) 981-3434,(337) 981-9558,(337) 262-3688,,30.1705914,-92.06861159,,N,,,US,06.00.00,22.00.00,06.00.00,22.00.00,06.00.00,22.00.00,06.00.00,22.00.00,06.00.00,22.00.00,06.00.00,22.00.00,08.00.00,20.00.00,America/Chicago,TRUE,TRUE,TRUE,TRUE,TRUE,TRUE,FALSE,,,,,,,,,,,,,,,,,,,,,
485,FT. Oglethorpe Lowe's,"LOWE'S OF FT. OGLETHORPE, GA",2215 BATTLEFIELD PARKWAY,2215 Battlefield Pkwy,FT. OGLETHORPE,Ft. Oglethorpe,GA,30742,(706) 866-0948,(706) 866-6495,(706) 861-8021,,34.94688382,-85.22716034,,N,,,US,06.00.00,22.00.00,06.00.00,22.00.00,06.00.00,22.00.00,06.00.00,22.00.00,06.00.00,22.00.00,06.00.00,22.00.00,08.00.00,20.00.00,America/New_York,TRUE,TRUE,TRUE,TRUE,TRUE,TRUE,FALSE,,,,,,,,,,,,,,,,,,,,,
486,W. Knoxville Lowe's,"LOWE'S OF W. KNOXVILLE, TN",210 N. PETERS ROAD,210 N. Peters Rd,KNOXVILLE,Knoxville,TN,37923,(865) 690-9770,(865) 670-1150,(865) 690-5990,,35.9183013,-84.082387,,N,,,US,06.00.00,22.00.00,06.00.00,22.00.00,06.00.00,22.00.00,06.00.00,22.00.00,06.00.00,22.00.00,06.00.00,22.00.00,08.00.00,20.00.00,America/New_York,TRUE,TRUE,TRUE,TRUE,TRUE,TRUE,FALSE,,,,,,,,,,,,,,,,,,,,,
487,Chapel Hill Lowe's,"LOWE'S OF CHAPEL HILL, NC",1801 FORDHAM BOULEVARD,1801 Fordham Blvd,CHAPEL HILL,Chapel Hill,NC,27514,(919) 967-3289,(919) 967-7089,(919) 240-3049,,35.94742285,-79.01270946,,N,,,US,06.00.00,22.00.00,06.00.00,22.00.00,06.00.00,22.00.00,06.00.00,22.00.00,06.00.00,22.00.00,06.00.00,22.00.00,08.00.00,20.00.00,America/New_York,TRUE,TRUE,TRUE,TRUE,TRUE,TRUE,FALSE,,,,,,,,,,,,,,,,,,,,,
488,Garner Lowe's,"LOWE'S OF GARNER, NC",1575 U S HIGHWAY 70 WEST,1575 U.S. Highway 70 West,GARNER,Garner,NC,27529,(919) 772-4466,(919) 772-9369,(919) 455-2422,,35.72383459,-78.65004988,,N,,,US,06.00.00,22.00.00,06.00.00,22.00.00,06.00.00,22.00.00,06.00.00,22.00.00,06.00.00,22.00.00,06.00.00,22.00.00,08.00.00,20.00.00,America/New_York,TRUE,TRUE,TRUE,TRUE,TRUE,TRUE,FALSE,,,,,,,,,,,,,,,,,,,,,
489,Huntersville Lowe's,"LOWE'S OF HUNTERSVILLE, NC",16830 STATESVILLE ROAD,16830 Statesville Rd,HUNTERSVILLE,Huntersville,NC,28078,(704) 892-9449,(704) 892-6746,(704) 237-2318,,35.44581072,-80.86484249,,N,http://images.lowes.com/general/n/NRdiamond.gif,,US,06.00.00,22.00.00,06.00.00,22.00.00,06.00.00,22.00.00,06.00.00,22.00.00,06.00.00,22.00.00,06.00.00,22.00.00,08.00.00,20.00.00,America/New_York,TRUE,TRUE,TRUE,TRUE,TRUE,TRUE,TRUE,,,,,,,,,,,,,,,,,,,,,
490,Lexington Lowe's,"LOWE'S OF LEXINGTON, NC",130 LOWE'S BLVD.,130 Lowe's Blvd,LEXINGTON,Lexington,NC,27292,(336) 248-2300,(336) 248-2083,(336) 248-2607,,35.79253231,-80.2577703,,N,,Yes,US,07.00.00,21.00.00,07.00.00,21.00.00,07.00.00,21.00.00,07.00.00,21.00.00,07.00.00,21.00.00,07.00.00,21.00.00,09.00.00,19.00.00,America/New_York,TRUE,TRUE,TRUE,TRUE,TRUE,TRUE,FALSE,,,,,,,,,,,,,,,,,,,,,
491,Albany Lowe's,"LOWE'S OF ALBANY, GA",1200 NORTH WESTOVER BLVD.,1200 North Westover Blvd,ALBANY,Albany,GA,31707,(229) 436-0555,(229) 889-8283,(229) 436-2519,,31.61473542,-84.21023376,,N,,,US,06.00.00,22.00.00,06.00.00,22.00.00,06.00.00,22.00.00,06.00.00,22.00.00,06.00.00,22.00.00,06.00.00,22.00.00,08.00.00,20.00.00,America/New_York,TRUE,TRUE,TRUE,TRUE,TRUE,TRUE,FALSE,,,,,,,,,,,,,,,,,,,,,
492,Frankfort Lowe's,"LOWE'S OF FRANKFORT, KY",350 LEONARDWOOD DRIVE,350 Leonardwood Dr,FRANKFORT,Frankfort,KY,40601,(502) 223-7500,(502) 223-7590,(502) 223-6048,,38.16328428,-84.89856473,,N,,,US,07.00.00,21.00.00,07.00.00,21.00.00,07.00.00,21.00.00,07.00.00,21.00.00,07.00.00,21.00.00,07.00.00,21.00.00,08.00.00,19.00.00,America/New_York,TRUE,TRUE,TRUE,TRUE,TRUE,TRUE,FALSE,,,,,,,,,,,,,,,,,,,,,
493,Carbondale Lowe's,"LOWE'S OF CARBONDALE, IL",1170 EAST RENDLEMAN ROAD,1170 East Rendleman Rd,CARBONDALE,Carbondale,IL,62901,(618) 529-8400,(618) 351-0933,(618) 305-2019,,37.73305261,-89.19579861,,N,,,US,06.00.00,22.00.00,06.00.00,22.00.00,06.00.00,22.00.00,06.00.00,22.00.00,06.00.00,22.00.00,06.00.00,22.00.00,08.00.00,20.00.00,America/Chicago,TRUE,TRUE,TRUE,TRUE,TRUE,TRUE,FALSE,,,,,,,,,,,,,,,,,,,,,
494,Corbin Lowe's,"LOWE'S OF CORBIN, KY",777 WEST CUMBERLAND GAP PKY.,777 West Cumberland Gap Pky,CORBIN,Corbin,KY,40701,(606) 528-8500,(606) 528-6826,(606) 526-7033,,36.97202139,-84.09928657,,N,,,US,07.00.00,21.00.00,07.00.00,21.00.00,07.00.00,21.00.00,07.00.00,21.00.00,07.00.00,21.00.00,07.00.00,21.00.00,09.00.00,19.00.00,America/New_York,TRUE,TRUE,TRUE,TRUE,TRUE,TRUE,FALSE,,,,,,,,,,,,,,,,,,,,,
495,Salisbury Lowe's,"LOWE'S OF SALISBURY, NC",207 FAITH ROAD,207 Faith Rd,SALISBURY,Salisbury,NC,28146,(704) 638-0808,(704) 638-9651,(704) 431-9020,,35.65377798,-80.46000071,,N,http://images.lowes.com/general/n/NRdiamond.gif,Yes,US,06.00.00,22.00.00,06.00.00,22.00.00,06.00.00,22.00.00,06.00.00,22.00.00,06.00.00,22.00.00,06.00.00,22.00.00,08.00.00,20.00.00,America/New_York,TRUE,TRUE,TRUE,TRUE,TRUE,TRUE,TRUE,,,,,,,,,,,,,,,,,,,,,
